stop_id,stop_code,stop_name,stop_desc,stop_lat,stop_lon,zone_id,stop_url,location_type,parent_station,stop_timezone,wheelchair_boarding,platform_code
1_0,,交通局東北大学病院前,,38.269185,140.862062,1_0,,0,,,,
1_11,,交通局東北大学病院前,,38.269208,140.862266,1_11,,0,,,,
1_12,,交通局東北大学病院前,,38.269170,140.862275,1_12,,0,,,,
1_51,,交通局東北大学病院前,,38.269398,140.862008,1_51,,0,,,,
101_10,,木町通二丁目,,38.272017,140.867296,101_10,,0,,,,
101_50,,木町通二丁目,,38.271636,140.866260,101_50,,0,,,,
1019_10,,台原入口,,38.282782,140.872407,1019_10,,0,,,,
1019_50,,台原入口,,38.282632,140.872188,1019_50,,0,,,,
1021_10,,台原三丁目,,38.289196,140.872111,1021_10,,0,,,,
1021_50,,台原三丁目,,38.289219,140.871848,1021_50,,0,,,,
1023_10,,北根一丁目,,38.294178,140.873215,1023_10,,0,,,,
1023_50,,北根一丁目,,38.293929,140.872842,1023_50,,0,,,,
1025_10,,北根二丁目・文学館前,,38.297123,140.874861,1025_10,,0,,,,
1025_50,,北根二丁目・文学館前,,38.295861,140.873838,1025_50,,0,,,,
1027_10,,北根三丁目,,38.300091,140.876489,1027_10,,0,,,,1
1027_50,,北根三丁目,,38.298856,140.875892,1027_50,,0,,,,3
1029_10,,黒松団地入口,,38.303413,140.878254,1029_10,,0,,,,1
1029_50,,黒松団地入口,,38.303518,140.878020,1029_50,,0,,,,2
1029_51,,黒松団地入口,,38.303939,140.878628,1029_51,,0,,,,3
1043_10,,虹の丘団地入口,,38.307701,140.879163,1043_10,,0,,,,
1043_50,,虹の丘団地入口,,38.307678,140.878888,1043_50,,0,,,,
1045_10,,向原,,38.310746,140.881373,1045_10,,0,,,,
1045_50,,向原,,38.310922,140.881069,1045_50,,0,,,,
105_10,,東北大学病院前,,38.270897,140.860804,105_10,,0,,,,1
105_111,,東北大学病院前,,38.271356,140.863499,105_111,,0,,,,4
105_112,,東北大学病院前,,38.270085,140.861984,105_112,,0,,,,5
105_50,,東北大学病院前,,38.270728,140.860786,105_50,,0,,,,2
105_51,,東北大学病院前,,38.272658,140.862131,105_51,,0,,,,3
1061_0,,八乙女駅,,38.313035,140.884344,1061_0,,0,,,,
1061_10,,八乙女駅,,38.313082,140.884127,1061_10,,0,,,,1
1061_11,,八乙女駅,,38.313038,140.884437,1061_11,,0,,,,6
107_10,,広瀬町,,38.270603,140.856663,107_10,,0,,,,
107_50,,広瀬町,,38.270444,140.856418,107_50,,0,,,,
1081_10,,泉警察署前,,38.321245,140.882812,1081_10,,0,,,,
1081_50,,泉警察署前,,38.321138,140.883063,1081_50,,0,,,,
1085_0,,泉中央駅,,38.322924,140.881010,1085_0,,0,,,,
1085_11,,泉中央駅,,38.322702,140.881413,1085_11,,0,,,,1
1085_12,,泉中央駅,,38.322804,140.881418,1085_12,,0,,,,2
1089_10,,七北田公園西口,,38.321139,140.875924,1089_10,,0,,,,
1089_50,,七北田公園西口,,38.321069,140.875921,1089_50,,0,,,,
109_10,,八幡一丁目,,38.270055,140.851871,109_10,,0,,,,
109_50,,八幡一丁目,,38.269912,140.851740,109_50,,0,,,,
1091_50,,泉区役所・イズミティ２１前,,38.325242,140.881579,1091_50,,0,,,,
1093_10,,泉中央駅北口,,38.324145,140.880551,1093_10,,0,,,,
1095_10,,菅間,,38.325142,140.878299,1095_10,,0,,,,
1095_50,,菅間,,38.325087,140.878404,1095_50,,0,,,,
1099_10,,朴木沢,,38.325491,140.875202,1099_10,,0,,,,
1099_50,,朴木沢,,38.325380,140.875289,1099_50,,0,,,,
1103_10,,泉総合運動場・社会福祉センター前,,38.326381,140.869631,1103_10,,0,,,,
1103_50,,泉総合運動場・社会福祉センター前,,38.326344,140.868513,1103_50,,0,,,,
1107_10,,野村,,38.325595,140.862604,1107_10,,0,,,,
1107_50,,野村,,38.325479,140.862328,1107_50,,0,,,,
1109_10,,上野前,,38.327154,140.849870,1109_10,,0,,,,
1109_50,,上野前,,38.327079,140.849855,1109_50,,0,,,,
111_10,,龍宝寺入口,,38.269894,140.847924,111_10,,0,,,,
111_50,,龍宝寺入口,,38.269734,140.847815,111_50,,0,,,,
1111_10,,泉パークタウン入口,,38.328991,140.842880,1111_10,,0,,,,
1111_50,,泉パークタウン入口,,38.328858,140.843085,1111_50,,0,,,,
1113_10,,八沢川,,38.328021,140.835014,1113_10,,0,,,,
1113_50,,八沢川,,38.328049,140.834610,1113_50,,0,,,,
1115_10,,実沢,,38.328442,140.820270,1115_10,,0,,,,
1115_151,,実沢,,38.328276,140.823824,1115_151,,0,,,,
1115_50,,実沢,,38.328289,140.820679,1115_50,,0,,,,
1117_10,,小角,,38.329146,140.815423,1117_10,,0,,,,
1117_50,,小角,,38.329036,140.816313,1117_50,,0,,,,
1119_10,,鼻毛橋,,38.329181,140.812616,1119_10,,0,,,,
1119_50,,鼻毛橋,,38.329112,140.812636,1119_50,,0,,,,
1121_10,,窪,,38.328469,140.806169,1121_10,,0,,,,
1121_11,,窪,,38.327860,140.804965,1121_11,,0,,,,
1121_50,,窪,,38.328134,140.806555,1121_50,,0,,,,
1121_51,,窪,,38.327837,140.805453,1121_51,,0,,,,
1122_10,,福沢入口,,38.333517,140.802307,1122_10,,0,,,,
1123_10,,判在家,,38.335891,140.802205,1123_10,,0,,,,
1123_50,,判在家,,38.336028,140.802082,1123_50,,0,,,,
1124_10,,根白石デイサービスセンター入口,,38.338258,140.801363,1124_10,,0,,,,
1125_0,,根白石下町,,38.340705,140.800815,1125_0,,0,,,,
1125_10,,根白石下町,,38.340414,140.800930,1125_10,,0,,,,
1125_50,,根白石下町,,38.340410,140.800829,1125_50,,0,,,,
1127_10,,根白石小学校前,,38.343334,140.798936,1127_10,,0,,,,
1127_50,,根白石小学校前,,38.343319,140.798746,1127_50,,0,,,,
1128_10,,馬橋,,38.346226,140.796979,1128_10,,0,,,,
1128_50,,馬橋,,38.346184,140.796850,1128_50,,0,,,,
1129_10,,根白石,,38.343883,140.797384,1129_10,,0,,,,
1129_50,,根白石,,38.343815,140.797312,1129_50,,0,,,,
113_10,,大崎八幡宮前,,38.269667,140.845172,113_10,,0,,,,
113_50,,大崎八幡宮前,,38.269536,140.845321,113_50,,0,,,,
1130_0,,根白石市民センター前,,38.342670,140.795426,1130_0,,0,,,,
1130_10,,根白石市民センター前,,38.342550,140.795071,1130_10,,0,,,,
1130_50,,根白石市民センター前,,38.342711,140.795680,1130_50,,0,,,,
1131_10,,町頭,,38.345637,140.796099,1131_10,,0,,,,
1132_10,,宝積寺前,,38.347560,140.795400,1132_10,,0,,,,
1133_10,,川向,,38.350977,140.793959,1133_10,,0,,,,
1135_10,,川崎入口,,38.354917,140.786141,1135_10,,0,,,,
1137_10,,泉川崎,,38.355516,140.783880,1137_10,,0,,,,
1137_50,,泉川崎,,38.355400,140.783956,1137_50,,0,,,,
1139_10,,川崎上,,38.358789,140.780989,1139_10,,0,,,,
1139_50,,川崎上,,38.357835,140.781543,1139_50,,0,,,,
1141_10,,南切立,,38.363956,140.776538,1141_10,,0,,,,
1143_10,,七北田ダム入口,,38.366774,140.772892,1143_10,,0,,,,
1145_10,,旗枠,,38.370834,140.767394,1145_10,,0,,,,
1147_10,,金森橋,,38.373085,140.760508,1147_10,,0,,,,
1149_10,,笈坂東,,38.374955,140.747483,1149_10,,0,,,,
1151_10,,笈坂,,38.379029,140.740290,1151_10,,0,,,,
1153_10,,芳の平,,38.381241,140.727547,1153_10,,0,,,,
1155_0,,泉岳自然ふれあい館,,38.390061,140.720109,1155_0,,0,,,,
1155_10,,泉岳自然ふれあい館,,38.390061,140.720109,1155_10,,0,,,,
1160_0,,スプリングバレー仙台泉スキー場,,38.418934,140.723190,1160_0,,0,,,,
1160_10,,スプリングバレー仙台泉スキー場,,38.418934,140.723190,1160_10,,0,,,,
1165_10,,要害,,38.365638,140.790130,1165_10,,0,,,,
1170_50,,朴沢小原,,38.371675,140.790769,1170_50,,0,,,,
1175_10,,雷神下,,38.350230,140.781410,1175_10,,0,,,,
1175_50,,雷神下,,38.350083,140.781343,1175_50,,0,,,,
1231_10,,加茂入口,,38.314057,140.868606,1231_10,,0,,,,
1231_50,,加茂入口,,38.314053,140.868751,1231_50,,0,,,,
1233_10,,加茂一丁目,,38.312503,140.864167,1233_10,,0,,,,
1233_50,,加茂一丁目,,38.312349,140.864163,1233_50,,0,,,,
1235_10,,加茂一丁目西,,38.311811,140.859137,1235_10,,0,,,,
1235_50,,加茂一丁目西,,38.311925,140.859823,1235_50,,0,,,,
1237_10,,加茂四丁目,,38.313003,140.856514,1237_10,,0,,,,
1237_50,,加茂四丁目,,38.313248,140.856241,1237_50,,0,,,,
1239_10,,加茂小学校前,,38.314430,140.852756,1239_10,,0,,,,
1239_50,,加茂小学校前,,38.314400,140.853489,1239_50,,0,,,,
1241_10,,加茂五丁目,,38.315990,140.848015,1241_10,,0,,,,
1241_50,,加茂五丁目,,38.315167,140.848600,1241_50,,0,,,,
1245_10,,加茂四丁目南,,38.312155,140.856307,1245_10,,0,,,,
1245_50,,加茂四丁目南,,38.311992,140.856342,1245_50,,0,,,,
1247_10,,上谷刈山添,,38.310831,140.848149,1247_10,,0,,,,
1247_50,,上谷刈山添,,38.310760,140.848762,1247_50,,0,,,,
1250_10,,八乙女駅入口,,38.314717,140.882119,1250_10,,0,,,,
1250_50,,八乙女駅入口,,38.314518,140.882312,1250_50,,0,,,,
1251_10,,上谷刈一丁目東,,38.315169,140.879091,1251_10,,0,,,,
1251_50,,上谷刈一丁目東,,38.314932,140.879642,1251_50,,0,,,,
1253_10,,上谷刈一丁目,,38.315495,140.876866,1253_10,,0,,,,
1253_50,,上谷刈一丁目,,38.315555,140.875280,1253_50,,0,,,,
1254_10,,上谷刈二丁目,,38.316194,140.872050,1254_10,,0,,,,
1254_50,,上谷刈二丁目,,38.316102,140.871509,1254_50,,0,,,,
1255_10,,上谷刈三丁目,,38.315712,140.868569,1255_10,,0,,,,
1255_50,,上谷刈三丁目,,38.315503,140.868545,1255_50,,0,,,,
1256_10,,加茂二丁目南,,38.314336,140.862153,1256_10,,0,,,,
1256_50,,加茂二丁目南,,38.314310,140.862929,1256_50,,0,,,,
1265_10,,加茂五丁目北,,38.319668,140.845093,1265_10,,0,,,,
1265_50,,加茂五丁目北,,38.319596,140.845063,1265_50,,0,,,,
1271_10,,長命ケ丘一丁目東,,38.317151,140.841363,1271_10,,0,,,,
1271_50,,長命ケ丘一丁目東,,38.317019,140.841240,1271_50,,0,,,,
1273_10,,長命ケ丘一丁目,,38.316636,140.836867,1273_10,,0,,,,
1273_50,,長命ケ丘一丁目,,38.316453,140.836429,1273_50,,0,,,,
1275_10,,長命ケ丘五丁目,,38.315587,140.832897,1275_10,,0,,,,
1275_50,,長命ケ丘五丁目,,38.315480,140.832743,1275_50,,0,,,,
1277_10,,長命ケ丘六丁目,,38.313242,140.831545,1277_10,,0,,,,
1277_50,,長命ケ丘六丁目,,38.313060,140.831786,1277_50,,0,,,,
1279_10,,長命ケ丘四丁目,,38.310413,140.832753,1279_10,,0,,,,
1279_50,,長命ケ丘四丁目,,38.310197,140.833010,1279_50,,0,,,,
1281_10,,長命ケ丘三丁目,,38.310052,140.836589,1281_10,,0,,,,
1281_50,,長命ケ丘三丁目,,38.310044,140.836282,1281_50,,0,,,,
1283_10,,長命ケ丘二丁目西,,38.312192,140.839337,1283_10,,0,,,,
1283_50,,長命ケ丘二丁目西,,38.312271,140.839259,1283_50,,0,,,,
1285_0,,長命ケ丘二丁目,,38.315517,140.839673,1285_0,,0,,,,
1285_10,,長命ケ丘二丁目,,38.315010,140.840430,1285_10,,0,,,,
1285_50,,長命ケ丘二丁目,,38.315447,140.839618,1285_50,,0,,,,
1293_10,,住吉台西二丁目,,38.330542,140.776670,1293_10,,0,,,,
1293_50,,住吉台西二丁目,,38.330457,140.775979,1293_50,,0,,,,
1294_0,,住吉台西三丁目,,38.330457,140.771542,1294_0,,0,,,,
1294_10,,住吉台西三丁目,,38.330550,140.772191,1294_10,,0,,,,
1295_10,,住吉台西四丁目,,38.330538,140.779898,1295_10,,0,,,,
1295_50,,住吉台西四丁目,,38.330453,140.779109,1295_50,,0,,,,
1296_10,,住吉台東三丁目,,38.332255,140.787519,1296_10,,0,,,,
1296_50,,住吉台東三丁目,,38.332183,140.786923,1296_50,,0,,,,
1297_10,,住吉台東四丁目,,38.331595,140.790549,1297_10,,0,,,,
1297_50,,住吉台東四丁目,,38.331734,140.790435,1297_50,,0,,,,
1298_10,,住吉台東五丁目,,38.329039,140.790548,1298_10,,0,,,,
1298_50,,住吉台東五丁目,,38.329242,140.790476,1298_50,,0,,,,
1299_10,,住吉台東二丁目,,38.327803,140.786710,1299_10,,0,,,,
1299_50,,住吉台東二丁目,,38.327862,140.787294,1299_50,,0,,,,
1301_10,,住吉神社前,,38.338002,140.791427,1301_10,,0,,,,
1301_50,,住吉神社前,,38.337722,140.790760,1301_50,,0,,,,
1303_10,,萩坂,,38.335790,140.790462,1303_10,,0,,,,
1303_50,,萩坂,,38.335902,140.790389,1303_50,,0,,,,
1305_11,,住吉台中央,,38.332272,140.785102,1305_11,,0,,,,
1305_51,,住吉台中央,,38.332199,140.784812,1305_51,,0,,,,
1307_10,,住吉台一丁目,,38.326652,140.784160,1307_10,,0,,,,
1307_50,,住吉台一丁目,,38.327138,140.784001,1307_50,,0,,,,
1309_10,,住吉台入口,,38.324859,140.788865,1309_10,,0,,,,
1309_50,,住吉台入口,,38.324839,140.788707,1309_50,,0,,,,
131_50,,錦町公園前,,38.266722,140.874759,131_50,,0,,,,
1311_10,,萱場,,38.325566,140.792140,1311_10,,0,,,,
1311_50,,萱場,,38.325137,140.791697,1311_50,,0,,,,
1313_10,,大満寺前,,38.328240,140.797770,1313_10,,0,,,,
1313_50,,大満寺前,,38.328329,140.798404,1313_50,,0,,,,
1315_10,,芦沢,,38.327713,140.801803,1315_10,,0,,,,
1315_11,,芦沢,,38.328106,140.802671,1315_11,,0,,,,
1315_50,,芦沢,,38.328454,140.801227,1315_50,,0,,,,
133_50,,錦町,,38.267380,140.877559,133_50,,0,,,,
135_10,,花京院・シルバーセンター前,,38.265741,140.880456,135_10,,0,,,,1
135_50,,花京院・シルバーセンター前,,38.265680,140.881663,135_50,,0,,,,2
135_51,,花京院・シルバーセンター前,,38.266536,140.879386,135_51,,0,,,,3
137_10,,小田原一丁目,,38.264986,140.886541,137_10,,0,,,,
137_50,,小田原一丁目,,38.265144,140.886602,137_50,,0,,,,
1375_10,,露払,,38.332342,140.795195,1375_10,,0,,,,
1375_50,,露払,,38.332506,140.794916,1375_50,,0,,,,
139_10,,常盤木学園前,,38.264775,140.888818,139_10,,0,,,,
139_50,,常盤木学園前,,38.264902,140.889220,139_50,,0,,,,
141_10,,小田原二丁目,,38.264489,140.892311,141_10,,0,,,,
141_50,,小田原二丁目,,38.264671,140.892089,141_50,,0,,,,
143_10,,第四合同庁舎前,,38.263889,140.894700,143_10,,0,,,,
143_50,,第四合同庁舎前,,38.264208,140.894517,143_50,,0,,,,
145_10,,原町一丁目,,38.263021,140.898612,145_10,,0,,,,1
145_50,,原町一丁目,,38.263740,140.900348,145_50,,0,,,,2
145_51,,原町一丁目,,38.262642,140.899170,145_51,,0,,,,3
147_10,,原町二丁目,,38.264435,140.903194,147_10,,0,,,,
147_50,,原町二丁目,,38.264700,140.903551,147_50,,0,,,,
149_10,,原町三丁目,,38.265653,140.907155,149_10,,0,,,,
149_50,,原町三丁目,,38.265747,140.906932,149_50,,0,,,,
151_10,,宮城野区役所前,,38.266531,140.909655,151_10,,0,,,,1
151_50,,宮城野区役所前,,38.266691,140.909615,151_50,,0,,,,3
1711_10,,黒松一丁目,,38.304526,140.882126,1711_10,,0,,,,
1711_50,,黒松一丁目,,38.304416,140.882074,1711_50,,0,,,,
1713_10,,黒松二丁目,,38.307407,140.882593,1713_10,,0,,,,
1713_50,,黒松二丁目,,38.307157,140.882452,1713_50,,0,,,,
1811_10,,上ノ宿,,38.346430,140.793703,1811_10,,0,,,,
1813_10,,堂林,,38.348673,140.791540,1813_10,,0,,,,
1815_10,,西泉,,38.350257,140.788695,1815_10,,0,,,,
1817_10,,福岡,,38.353041,140.783337,1817_10,,0,,,,
1819_10,,福岡小学校前,,38.353330,140.781155,1819_10,,0,,,,
1821_10,,藤沢,,38.349634,140.777084,1821_10,,0,,,,
1823_10,,柏坊,,38.345263,140.774534,1823_10,,0,,,,
1825_0,,花輪,,38.345507,140.783156,1825_0,,0,,,,
1825_10,,花輪,,38.345458,140.783147,1825_10,,0,,,,
1841_10,,下鼬原,,38.371354,140.760761,1841_10,,0,,,,
1843_10,,下荒沢,,38.367117,140.758158,1843_10,,0,,,,
1845_0,,杉の崎公会堂前,,38.364651,140.755868,1845_0,,0,,,,
1845_10,,杉の崎公会堂前,,38.364614,140.755870,1845_10,,0,,,,
1861_10,,鳥居原,,38.359318,140.786577,1861_10,,0,,,,
1863_10,,泉西原,,38.362073,140.789840,1863_10,,0,,,,
1867_0,,朴沢,,38.373554,140.789150,1867_0,,0,,,,
1867_10,,朴沢,,38.373549,140.789135,1867_10,,0,,,,
1870_10,,いずみ墓園管理事務所前,,38.368158,140.799318,1870_10,,0,,,,
1872_10,,墓園１６区画前,,38.368149,140.801593,1872_10,,0,,,,
1874_10,,墓園３区画前,,38.367028,140.800570,1874_10,,0,,,,
1876_0,,墓園１１区画前,,38.369308,140.801151,1876_0,,0,,,,
1876_10,,墓園１１区画前,,38.369278,140.801071,1876_10,,0,,,,
1882_10,,墓園１３区画前,,38.369167,140.801854,1882_10,,0,,,,
1882_50,,墓園１３区画前,,38.369161,140.801944,1882_50,,0,,,,
1886_10,,墓園１８区画前,,38.370910,140.799966,1886_10,,0,,,,
1888_10,,墓園２３区画前,,38.371216,140.802712,1888_10,,0,,,,
1890_10,,合葬式墓所前,,38.373310,140.801971,1890_10,,0,,,,
200_0,,広瀬通一番町,,38.262478,140.871756,200_0,,0,,,,
200_10,,広瀬通一番町,,38.262588,140.871715,200_10,,0,,,,
200_50,,広瀬通一番町,,38.262324,140.871810,200_50,,0,,,,
2001_10,,堤通雨宮町,,38.276671,140.867938,2001_10,,0,,,,
2001_50,,堤通雨宮町,,38.275264,140.868067,2001_50,,0,,,,
2002_10,,厚生病院前,,38.274793,140.869319,2002_10,,0,,,,
2002_50,,厚生病院前,,38.275043,140.870264,2002_50,,0,,,,
2003_10,,上杉二丁目,,38.275217,140.872304,2003_10,,0,,,,
2003_50,,上杉二丁目,,38.275330,140.872250,2003_50,,0,,,,
2005_10,,附属小学校前,,38.275769,140.876593,2005_10,,0,,,,
2005_50,,附属小学校前,,38.275900,140.876644,2005_50,,0,,,,
2007_10,,視覚支援学校前,,38.276036,140.878753,2007_10,,0,,,,
2007_50,,視覚支援学校前,,38.276226,140.879553,2007_50,,0,,,,
2009_10,,北六番丁小学校前,,38.276353,140.881953,2009_10,,0,,,,
2009_50,,北六番丁小学校前,,38.276472,140.881890,2009_50,,0,,,,
2011_10,,宮町五丁目,,38.276069,140.886049,2011_10,,0,,,,
2011_50,,宮町五丁目,,38.276162,140.885791,2011_50,,0,,,,
2013_10,,福沢市民センター前,,38.274996,140.889046,2013_10,,0,,,,
2013_50,,福沢市民センター前,,38.274447,140.889297,2013_50,,0,,,,
2014_10,,中江郵便局前,,38.273927,140.889409,2014_10,,0,,,,
2015_10,,中江公園前,,38.272910,140.892811,2015_10,,0,,,,
2015_50,,中江公園前,,38.273095,140.892699,2015_50,,0,,,,
2017_10,,中江一丁目,,38.272895,140.895094,2017_10,,0,,,,
2017_50,,中江一丁目,,38.273083,140.894655,2017_50,,0,,,,
2019_10,,幸町二丁目,,38.272843,140.899744,2019_10,,0,,,,
2019_11,,幸町二丁目,,38.273544,140.899030,2019_11,,0,,,,
2019_50,,幸町二丁目,,38.273086,140.899810,2019_50,,0,,,,
2019_51,,幸町二丁目,,38.273607,140.898924,2019_51,,0,,,,
2023_10,,幸町五丁目,,38.272820,140.902777,2023_10,,0,,,,
2023_50,,幸町五丁目,,38.273069,140.902862,2023_50,,0,,,,
2025_10,,大梶,,38.272815,140.905639,2025_10,,0,,,,
2025_50,,大梶,,38.273082,140.905447,2025_50,,0,,,,
2029_10,,東仙台三丁目,,38.273226,140.909408,2029_10,,0,,,,
2029_50,,東仙台三丁目,,38.273248,140.908900,2029_50,,0,,,,
2031_10,,案内公園前,,38.276069,140.915180,2031_10,,0,,,,
2031_50,,案内公園前,,38.275565,140.914553,2031_50,,0,,,,
2035_10,,東仙台,,38.278569,140.917699,2035_10,,0,,,,
2035_11,,東仙台,,38.278365,140.916151,2035_11,,0,,,,
2035_50,,東仙台,,38.277551,140.916093,2035_50,,0,,,,
2035_51,,東仙台,,38.278406,140.916301,2035_51,,0,,,,
2037_10,,燕沢住宅前,,38.279492,140.919723,2037_10,,0,,,,
2037_50,,燕沢住宅前,,38.279655,140.919703,2037_50,,0,,,,
2039_10,,小鶴住宅入口,,38.280459,140.921941,2039_10,,0,,,,
2039_50,,小鶴住宅入口,,38.280874,140.922354,2039_50,,0,,,,
2041_0,,市営バス東仙台営業所前,,38.282844,140.924681,2041_0,,0,,,,
2041_10,,市営バス東仙台営業所前,,38.282782,140.924732,2041_10,,0,,,,
2041_11,,市営バス東仙台営業所前,,38.282784,140.924743,2041_11,,0,,,,
2041_50,,市営バス東仙台営業所前,,38.282875,140.924613,2041_50,,0,,,,
2097_10,,銀杏町北,,38.265702,140.912651,2097_10,,0,,,,
2097_50,,銀杏町北,,38.265879,140.912412,2097_50,,0,,,,
2099_0,,原ノ町駅・宮城野区役所前,,38.266245,140.910794,2099_0,,0,,,,
2099_10,,原ノ町駅・宮城野区役所前,,38.266245,140.910794,2099_10,,0,,,,
2101_10,,東郵便局前,,38.269838,140.910932,2101_10,,0,,,,
2101_50,,東郵便局前,,38.269196,140.911155,2101_50,,0,,,,
2103_10,,ガス局前,,38.274128,140.907832,2103_10,,0,,,,
2103_50,,ガス局前,,38.273609,140.907688,2103_50,,0,,,,
2105_10,,保健環境センター・青年会館前,,38.277901,140.908000,2105_10,,0,,,,
2105_11,,保健環境センター・青年会館前,,38.278304,140.906843,2105_11,,0,,,,
2105_12,,保健環境センター・青年会館前,,38.278661,140.909163,2105_12,,0,,,,
2105_50,,保健環境センター・青年会館前,,38.276987,140.907681,2105_50,,0,,,,
2105_51,,保健環境センター・青年会館前,,38.278408,140.906798,2105_51,,0,,,,
2105_52,,保健環境センター・青年会館前,,38.279120,140.908066,2105_52,,0,,,,
2107_10,,安養寺三丁目,,38.282317,140.911090,2107_10,,0,,,,
2107_50,,安養寺三丁目,,38.282566,140.911242,2107_50,,0,,,,
2109_10,,鶴ケ谷団地入口,,38.285607,140.914795,2109_10,,0,,,,
2109_11,,鶴ケ谷団地入口,,38.286007,140.915526,2109_11,,0,,,,
2109_151,,鶴ケ谷団地入口,,38.286040,140.914538,2109_151,,0,,,,
2109_52,,鶴ケ谷団地入口,,38.286518,140.915059,2109_52,,0,,,,
211_10,,東北公済病院戦災復興記念館前,,38.262480,140.867806,211_10,,0,,,,1
211_11,,東北公済病院戦災復興記念館前,,38.261988,140.868429,211_11,,0,,,,2
211_50,,東北公済病院戦災復興記念館前,,38.262729,140.867439,211_50,,0,,,,3
211_51,,東北公済病院戦災復興記念館前,,38.261877,140.869332,211_51,,0,,,,4
2111_10,,鶴ケ谷八丁目,,38.288602,140.915907,2111_10,,0,,,,
2111_50,,鶴ケ谷八丁目,,38.288675,140.915716,2111_50,,0,,,,
2113_10,,鶴ケ谷中央,,38.290220,140.916480,2113_10,,0,,,,
2113_11,,鶴ケ谷中央,,38.291849,140.917047,2113_11,,0,,,,
2113_12,,鶴ケ谷中央,,38.290750,140.915483,2113_12,,0,,,,
2113_50,,鶴ケ谷中央,,38.290286,140.916302,2113_50,,0,,,,
2113_51,,鶴ケ谷中央,,38.291332,140.916651,2113_51,,0,,,,
2113_52,,鶴ケ谷中央,,38.290818,140.915843,2113_52,,0,,,,
2115_10,,鶴ケ谷五丁目東,,38.293478,140.917727,2115_10,,0,,,,
2115_50,,鶴ケ谷五丁目東,,38.293514,140.917504,2115_50,,0,,,,
2117_10,,オープン病院・教育センター前,,38.295617,140.917452,2117_10,,0,,,,
2117_50,,オープン病院・教育センター前,,38.295491,140.917399,2117_50,,0,,,,
2119_10,,鶴谷特別支援学校前,,38.295664,140.913689,2119_10,,0,,,,
2119_50,,鶴谷特別支援学校前,,38.295521,140.913678,2119_50,,0,,,,
2121_10,,南光台東小学校入口,,38.297203,140.913435,2121_10,,0,,,,
2121_50,,南光台東小学校入口,,38.297211,140.913025,2121_50,,0,,,,
2129_10,,南光台南三丁目北,,38.296771,140.906101,2129_10,,0,,,,
2129_50,,南光台南三丁目北,,38.296638,140.906853,2129_50,,0,,,,
213_10,,立町小学校前,,38.261214,140.864114,213_10,,0,,,,
213_50,,立町小学校前,,38.260988,140.864435,213_50,,0,,,,
2131_10,,南光台南一丁目,,38.297946,140.902097,2131_10,,0,,,,
2131_50,,南光台南一丁目,,38.297875,140.902574,2131_50,,0,,,,
2135_10,,南光台小学校前,,38.298471,140.900250,2135_10,,0,,,,
2135_50,,南光台小学校前,,38.298500,140.900377,2135_50,,0,,,,
2137_10,,南光台四丁目南,,38.297925,140.896882,2137_10,,0,,,,
2137_50,,南光台四丁目南,,38.297946,140.896661,2137_50,,0,,,,
215_10,,仲の瀬橋,,38.262399,140.858381,215_10,,0,,,,
215_50,,仲の瀬橋,,38.262138,140.858413,215_50,,0,,,,
2151_0,,旭ケ丘駅,,38.295684,140.883954,2151_0,,0,,,,
2151_10,,旭ケ丘駅,,38.295534,140.883845,2151_10,,0,,,,6
2151_12,,旭ケ丘駅,,38.295814,140.883876,2151_12,,0,,,,4
2151_50,,旭ケ丘駅,,38.295636,140.883875,2151_50,,0,,,,5
2151_51,,旭ケ丘駅,,38.295753,140.884223,2151_51,,0,,,,3
217_10,,二高・宮城県美術館前,,38.262976,140.856549,217_10,,0,,,,
217_11,,二高・宮城県美術館前,,38.263868,140.855919,217_11,,0,,,,
217_50,,二高・宮城県美術館前,,38.262821,140.856547,217_50,,0,,,,
217_52,,二高・宮城県美術館前,,38.263693,140.855834,217_52,,0,,,,
219_0,,川内駅,,38.261363,140.851057,219_0,,0,,,,
219_10,,川内駅,,38.261460,140.851234,219_10,,0,,,,
219_50,,川内駅,,38.260895,140.850194,219_50,,0,,,,
2201_10,,小松島小学校前,,38.279467,140.891176,2201_10,,0,,,,
2201_50,,小松島小学校前,,38.279512,140.889829,2201_50,,0,,,,
2203_10,,幸町一丁目,,38.278545,140.894682,2203_10,,0,,,,
2203_50,,幸町一丁目,,38.278543,140.895023,2203_50,,0,,,,
221_10,,川内亀岡,,38.260984,140.849015,221_10,,0,,,,
221_50,,川内亀岡,,38.261001,140.848801,221_50,,0,,,,
2211_10,,高松入口,,38.281416,140.891686,2211_10,,0,,,,
2211_50,,高松入口,,38.281278,140.892166,2211_50,,0,,,,
2213_10,,高松二丁目,,38.280864,140.894913,2213_10,,0,,,,
2213_50,,高松二丁目,,38.280915,140.894967,2213_50,,0,,,,
2215_10,,高松三丁目,,38.280395,140.896701,2215_10,,0,,,,
2215_50,,高松三丁目,,38.280361,140.897677,2215_50,,0,,,,
2217_10,,与兵衛沼入口,,38.279133,140.900676,2217_10,,0,,,,
2220_10,,幸町小学校前,,38.276090,140.899059,2220_10,,0,,,,
2220_50,,幸町小学校前,,38.275842,140.898935,2220_50,,0,,,,
2221_10,,二の森,,38.277710,140.899408,2221_10,,0,,,,
2221_50,,二の森,,38.277797,140.899828,2221_50,,0,,,,
2222_10,,二の森東,,38.278059,140.901932,2222_10,,0,,,,
2222_50,,二の森東,,38.278215,140.902018,2222_50,,0,,,,
2223_10,,青葉病院・幸町市民センター入口,,38.278143,140.903808,2223_10,,0,,,,
2223_50,,青葉病院・幸町市民センター入口,,38.278208,140.903504,2223_50,,0,,,,
2225_10,,東仙台四丁目,,38.278610,140.910817,2225_10,,0,,,,
2225_50,,東仙台四丁目,,38.278659,140.911236,2225_50,,0,,,,
2227_10,,東仙台小学校前,,38.278631,140.913038,2227_10,,0,,,,
2227_50,,東仙台小学校前,,38.278731,140.913127,2227_50,,0,,,,
223_10,,川内亀岡公園前,,38.262850,140.845767,223_10,,0,,,,
223_50,,川内亀岡公園前,,38.262746,140.845810,223_50,,0,,,,
2240_10,,枡江小学校前,,38.279677,140.903527,2240_10,,0,,,,
2240_50,,枡江小学校前,,38.279973,140.903297,2240_50,,0,,,,
2241_10,,安養寺配水所前,,38.283000,140.904876,2241_10,,0,,,,
2241_11,,安養寺配水所前,,38.283972,140.903765,2241_11,,0,,,,
2241_50,,安養寺配水所前,,38.283077,140.904734,2241_50,,0,,,,
2241_51,,安養寺配水所前,,38.283221,140.904545,2241_51,,0,,,,
2243_10,,安養寺二丁目中,,38.284737,140.903311,2243_10,,0,,,,
2243_50,,安養寺二丁目中,,38.284472,140.903554,2243_50,,0,,,,
2245_0,,安養寺二丁目,,38.286575,140.901319,2245_0,,0,,,,
2245_10,,安養寺二丁目,,38.286576,140.901316,2245_10,,0,,,,
2247_10,,与兵衛沼公園前,,38.286018,140.897906,2247_10,,0,,,,
2247_50,,与兵衛沼公園前,,38.285706,140.897967,2247_50,,0,,,,
2249_10,,小松島新堤橋,,38.287660,140.893980,2249_10,,0,,,,
2249_50,,小松島新堤橋,,38.287456,140.893641,2249_50,,0,,,,
225_10,,川内三十人町,,38.264267,140.844102,225_10,,0,,,,
225_50,,川内三十人町,,38.264276,140.843986,225_50,,0,,,,
226_0,,交通公園・三居沢水力発電所前,,38.265901,140.842849,226_0,,0,,,,
226_10,,交通公園・三居沢水力発電所前,,38.265651,140.843093,226_10,,0,,,,
226_11,,交通公園・三居沢水力発電所前,,38.265720,140.843139,226_11,,0,,,,
226_12,,交通公園・三居沢水力発電所前,,38.266043,140.842712,226_12,,0,,,,
227_0,,市営バス川内営業所前,,38.267218,140.840827,227_0,,0,,,,
227_10,,市営バス川内営業所前,,38.267298,140.840902,227_10,,0,,,,
229_10,,牛越橋,,38.267603,140.844043,229_10,,0,,,,
229_50,,牛越橋,,38.267620,140.844142,229_50,,0,,,,
231_10,,角五郎二丁目,,38.267361,140.846851,231_10,,0,,,,
2311_10,,南光台入口,,38.289182,140.891574,2311_10,,0,,,,
2311_11,,南光台入口,,38.289061,140.890454,2311_11,,0,,,,
2311_50,,南光台入口,,38.288971,140.891182,2311_50,,0,,,,
2311_51,,南光台入口,,38.288833,140.890213,2311_51,,0,,,,
2313_10,,南光台一丁目,,38.291021,140.893387,2313_10,,0,,,,
2313_50,,南光台一丁目,,38.290587,140.892872,2313_50,,0,,,,
2315_10,,南光台二丁目,,38.293512,140.894682,2315_10,,0,,,,
2315_50,,南光台二丁目,,38.293225,140.895011,2315_50,,0,,,,
2317_11,,南光台集会所前,,38.294474,140.892421,2317_11,,0,,,,
2317_51,,南光台集会所前,,38.294621,140.892593,2317_51,,0,,,,
2319_11,,南光台三丁目,,38.297316,140.894008,2319_11,,0,,,,
2319_110,,南光台三丁目,,38.297974,140.892159,2319_110,,0,,,,
2319_150,,南光台三丁目,,38.297795,140.892097,2319_150,,0,,,,
2319_51,,南光台三丁目,,38.297309,140.893494,2319_51,,0,,,,
2321_10,,南光台四丁目,,38.300255,140.892171,2321_10,,0,,,,
2323_10,,南光台南三郵便局前,,38.294908,140.904636,2323_10,,0,,,,
2323_50,,南光台南三郵便局前,,38.294992,140.904613,2323_50,,0,,,,
2325_10,,南光台南二丁目,,38.294345,140.901667,2325_10,,0,,,,
2325_50,,南光台南二丁目,,38.294350,140.901720,2325_50,,0,,,,
2327_10,,南光台南一丁目中,,38.295083,140.899464,2327_10,,0,,,,
2327_50,,南光台南一丁目中,,38.294893,140.899978,2327_50,,0,,,,
2329_10,,南光台商工会館前,,38.296252,140.898515,2329_10,,0,,,,
2329_50,,南光台商工会館前,,38.296855,140.898371,2329_50,,0,,,,
233_10,,ドミニコ学院前,,38.266786,140.849587,233_10,,0,,,,
2331_10,,南光台三丁目東,,38.296652,140.895523,2331_10,,0,,,,
2331_50,,南光台三丁目東,,38.296950,140.895467,2331_50,,0,,,,
2333_10,,南光台三丁目南,,38.294580,140.893757,2333_10,,0,,,,
2333_11,,南光台三丁目南,,38.295452,140.894262,2333_11,,0,,,,
2333_50,,南光台三丁目南,,38.295437,140.892898,2333_50,,0,,,,
2333_51,,南光台三丁目南,,38.295492,140.894247,2333_51,,0,,,,
2335_10,,南光台三丁目公園前,,38.294121,140.891136,2335_10,,0,,,,
2335_50,,南光台三丁目公園前,,38.294211,140.891116,2335_50,,0,,,,
2341_10,,南光台五丁目,,38.302878,140.893257,2341_10,,0,,,,
2341_50,,南光台五丁目,,38.302976,140.893193,2341_50,,0,,,,
2343_10,,南光台五丁目東,,38.304516,140.893935,2343_10,,0,,,,
2343_11,,南光台五丁目東,,38.304536,140.894501,2343_11,,0,,,,
2343_50,,南光台五丁目東,,38.305026,140.894215,2343_50,,0,,,,
235_10,,角五郎一丁目,,38.266508,140.850880,235_10,,0,,,,
2351_10,,南光台六丁目,,38.304472,140.898226,2351_10,,0,,,,
2351_50,,南光台六丁目,,38.304526,140.898314,2351_50,,0,,,,
2353_0,,南光台中学校前,,38.303618,140.900439,2353_0,,0,,,,
2353_10,,南光台中学校前,,38.303647,140.900494,2353_10,,0,,,,
2353_50,,南光台中学校前,,38.303647,140.900494,2353_50,,0,,,,
2355_10,,南光台六丁目東,,38.302828,140.899110,2355_10,,0,,,,
2355_50,,南光台六丁目東,,38.302870,140.899203,2355_50,,0,,,,
2356_10,,南光台六丁目南,,38.302032,140.896792,2356_10,,0,,,,
2357_10,,南光台小学校入口,,38.301341,140.899826,2357_10,,0,,,,
2357_50,,南光台小学校入口,,38.301434,140.900223,2357_50,,0,,,,
2359_10,,南光台七丁目,,38.301043,140.903851,2359_10,,0,,,,
2359_50,,南光台七丁目,,38.301025,140.904089,2359_50,,0,,,,
237_10,,尚絅学院中学高校前,,38.267504,140.855520,237_10,,0,,,,1
237_11,,尚絅学院中学高校前,,38.267378,140.855643,237_11,,0,,,,2
237_50,,尚絅学院中学高校前,,38.267950,140.854490,237_50,,0,,,,3
2371_10,,八乙女小学校前,,38.307080,140.893704,2371_10,,0,,,,
2371_50,,八乙女小学校前,,38.307671,140.893160,2371_50,,0,,,,
2375_10,,八乙女二丁目,,38.309984,140.893323,2375_10,,0,,,,
2375_50,,八乙女二丁目,,38.310384,140.892379,2375_50,,0,,,,
2381_10,,八乙女中央五丁目,,38.311260,140.888320,2381_10,,0,,,,
2381_50,,八乙女中央五丁目,,38.311133,140.888132,2381_50,,0,,,,
239_50,,宮城一高前,,38.268031,140.851566,239_50,,0,,,,
2391_10,,八乙女中央三丁目,,38.313918,140.887800,2391_10,,0,,,,
2391_50,,八乙女中央三丁目,,38.314161,140.887390,2391_50,,0,,,,
2393_10,,八乙女一丁目,,38.311288,140.890523,2393_10,,0,,,,
2393_50,,八乙女一丁目,,38.311860,140.889071,2393_50,,0,,,,
2395_10,,八乙女四丁目,,38.310927,140.892786,2395_10,,0,,,,
2395_50,,八乙女四丁目,,38.310839,140.894473,2395_50,,0,,,,
241_50,,八幡三丁目,,38.268250,140.845719,241_50,,0,,,,
2411_10,,宮町一丁目,,38.267278,140.883522,2411_10,,0,,,,
2411_50,,宮町一丁目,,38.266889,140.883374,2411_50,,0,,,,
2413_10,,宮町二丁目,,38.271221,140.884021,2413_10,,0,,,,
2413_50,,宮町二丁目,,38.269676,140.883674,2413_50,,0,,,,
2415_10,,宮町三丁目,,38.273504,140.884281,2415_10,,0,,,,
2415_50,,宮町三丁目,,38.273165,140.884116,2415_50,,0,,,,
2417_10,,東照宮駅入口,,38.276795,140.884707,2417_10,,0,,,,
2417_50,,東照宮駅入口,,38.276783,140.884538,2417_50,,0,,,,
2419_10,,東照宮一丁目,,38.279093,140.886188,2419_10,,0,,,,
2419_50,,東照宮一丁目,,38.279165,140.886037,2419_50,,0,,,,
2421_10,,小松島三丁目,,38.280748,140.888075,2421_10,,0,,,,
2421_50,,小松島三丁目,,38.282482,140.887420,2421_50,,0,,,,
2423_10,,東北医科薬科大・東北高校前,,38.285744,140.888413,2423_10,,0,,,,
2423_50,,東北医科薬科大・東北高校前,,38.284770,140.887882,2423_50,,0,,,,
2424_10,,小松島四丁目,,38.287938,140.887788,2424_10,,0,,,,
2424_50,,小松島四丁目,,38.287254,140.887822,2424_50,,0,,,,
2425_11,,旭ケ丘一丁目東,,38.289556,140.886435,2425_11,,0,,,,
2425_51,,旭ケ丘一丁目東,,38.289277,140.886508,2425_51,,0,,,,
2431_10,,旭ケ丘一丁目北,,38.289813,140.882402,2431_10,,0,,,,
2431_50,,旭ケ丘一丁目北,,38.289584,140.881905,2431_50,,0,,,,
2441_0,,台原駅,,38.288668,140.878283,2441_0,,0,,,,
2441_10,,台原駅,,38.288466,140.878249,2441_10,,0,,,,
2441_11,,台原駅,,38.288291,140.878039,2441_11,,0,,,,
2441_12,,台原駅,,38.288180,140.877994,2441_12,,0,,,,
245_10,,澱橋通,,38.265364,140.856324,245_10,,0,,,,
245_50,,澱橋通,,38.265343,140.856180,245_50,,0,,,,
2451_10,,旭ケ丘一丁目西,,38.288538,140.883336,2451_10,,0,,,,
2451_50,,旭ケ丘一丁目西,,38.288944,140.883240,2451_50,,0,,,,
2453_10,,瞑想の松,,38.285018,140.880860,2453_10,,0,,,,
2453_50,,瞑想の松,,38.285831,140.882002,2453_50,,0,,,,
2455_10,,職業能力開発校前,,38.285214,140.878604,2455_10,,0,,,,
2457_10,,台原,,38.283802,140.877568,2457_10,,0,,,,
2457_50,,台原,,38.282778,140.876755,2457_50,,0,,,,
2459_10,,労災病院前,,38.283662,140.874873,2459_10,,0,,,,
2459_50,,労災病院前,,38.283824,140.874734,2459_50,,0,,,,
2519_10,,南光台保育園入口,,38.292152,140.894553,2519_10,,0,,,,
2519_50,,南光台保育園入口,,38.292832,140.895021,2519_50,,0,,,,
2521_10,,自由ケ丘,,38.291264,140.899226,2521_10,,0,,,,
2521_50,,自由ケ丘,,38.291454,140.898790,2521_50,,0,,,,
2523_10,,自由ケ丘中央,,38.290372,140.902154,2523_10,,0,,,,
2523_50,,自由ケ丘中央,,38.290529,140.901759,2523_50,,0,,,,
2524_10,,鶴ケ谷一丁目,,38.290009,140.905214,2524_10,,0,,,,
2524_50,,鶴ケ谷一丁目,,38.290287,140.905108,2524_50,,0,,,,
2525_11,,鶴ケ谷四丁目,,38.290247,140.907287,2525_11,,0,,,,
2525_51,,鶴ケ谷四丁目,,38.289992,140.906753,2525_51,,0,,,,
2526_10,,鶴ケ谷三丁目西,,38.289341,140.906507,2526_10,,0,,,,
2527_10,,鶴ケ谷三丁目三高前,,38.287722,140.908666,2527_10,,0,,,,
2527_50,,鶴ケ谷三丁目三高前,,38.287880,140.908753,2527_50,,0,,,,
2529_10,,鶴ケ谷二丁目,,38.286614,140.912036,2529_10,,0,,,,
2529_50,,鶴ケ谷二丁目,,38.286664,140.912529,2529_50,,0,,,,
2531_10,,鶴ケ谷東光台団地前,,38.285331,140.917249,2531_10,,0,,,,
2531_50,,鶴ケ谷東光台団地前,,38.285474,140.917393,2531_50,,0,,,,
2533_10,,鶴ケ谷七丁目西,,38.287658,140.918205,2533_10,,0,,,,
2533_50,,鶴ケ谷七丁目西,,38.287739,140.918166,2533_50,,0,,,,
2535_10,,鶴ケ谷七丁目南,,38.285174,140.920097,2535_10,,0,,,,
2535_50,,鶴ケ谷七丁目南,,38.285246,140.919490,2535_50,,0,,,,
2537_10,,鶴ケ谷七丁目東,,38.287215,140.921661,2537_10,,0,,,,
2537_50,,鶴ケ谷七丁目東,,38.287223,140.921502,2537_50,,0,,,,
2539_0,,鶴ケ谷七丁目,,38.289845,140.922453,2539_0,,0,,,,
2539_10,,鶴ケ谷七丁目,,38.289894,140.923636,2539_10,,0,,,,
2539_50,,鶴ケ谷七丁目,,38.289845,140.922453,2539_50,,0,,,,
2539_51,,鶴ケ谷七丁目,,38.289806,140.924827,2539_51,,0,,,,
2565_10,,鶴ケ谷六丁目東,,38.291035,140.925380,2565_10,,0,,,,
2567_10,,鶴ケ谷六丁目北,,38.293336,140.923960,2567_10,,0,,,,
2569_10,,鶴ケ谷六丁目西,,38.292644,140.920376,2569_10,,0,,,,
2571_10,,鶴ケ谷六丁目東小学校前,,38.290094,140.919494,2571_10,,0,,,,
2571_11,,鶴ケ谷六丁目東小学校前,,38.290959,140.919070,2571_11,,0,,,,
2571_50,,鶴ケ谷六丁目東小学校前,,38.290182,140.918218,2571_50,,0,,,,
2571_51,,鶴ケ谷六丁目東小学校前,,38.289702,140.918757,2571_51,,0,,,,
2573_10,,鶴ケ谷五丁目,,38.291624,140.912379,2573_10,,0,,,,
2573_50,,鶴ケ谷五丁目,,38.291685,140.912650,2573_50,,0,,,,
2575_10,,鶴谷小学校前,,38.291656,140.909651,2575_10,,0,,,,
2575_50,,鶴谷小学校前,,38.291713,140.909605,2575_50,,0,,,,
2601_10,,鶴ケ谷四丁目中,,38.293038,140.906843,2601_10,,0,,,,
2601_50,,鶴ケ谷四丁目中,,38.293067,140.906617,2601_50,,0,,,,
2603_10,,鶴ケ谷四丁目北,,38.295002,140.909317,2603_10,,0,,,,
2603_11,,鶴ケ谷四丁目北,,38.295881,140.910382,2603_11,,0,,,,
2603_50,,鶴ケ谷四丁目北,,38.295161,140.909184,2603_50,,0,,,,
2603_51,,鶴ケ谷四丁目北,,38.295727,140.910392,2603_51,,0,,,,
2611_10,,南光台東一丁目,,38.296952,140.909745,2611_10,,0,,,,
2611_50,,南光台東一丁目,,38.296562,140.909511,2611_50,,0,,,,
2619_10,,南光台東一丁目中央,,38.298779,140.906601,2619_10,,0,,,,
2619_50,,南光台東一丁目中央,,38.298732,140.906622,2619_50,,0,,,,
2621_10,,南光台東一丁目西,,38.300575,140.905509,2621_10,,0,,,,
2621_50,,南光台東一丁目西,,38.299992,140.905170,2621_50,,0,,,,
2623_10,,松森明神,,38.304040,140.904198,2623_10,,0,,,,
2623_50,,松森明神,,38.304115,140.904032,2623_50,,0,,,,
2625_10,,松森中道,,38.307752,140.901398,2625_10,,0,,,,
2625_50,,松森中道,,38.307899,140.901700,2625_50,,0,,,,
2641_10,,後田,,38.309224,140.901301,2641_10,,0,,,,
2641_50,,後田,,38.309200,140.901222,2641_50,,0,,,,
2701_10,,旭ケ丘二丁目,,38.291536,140.888169,2701_10,,0,,,,
2701_50,,旭ケ丘二丁目,,38.292613,140.888357,2701_50,,0,,,,
2703_10,,旭ケ丘三丁目,,38.294393,140.888309,2703_10,,0,,,,
2703_11,,旭ケ丘三丁目,,38.296021,140.888725,2703_11,,0,,,,
2703_50,,旭ケ丘三丁目,,38.294810,140.888214,2703_50,,0,,,,
2703_51,,旭ケ丘三丁目,,38.296110,140.888692,2703_51,,0,,,,
2704_51,,旭ケ丘二丁目南,,38.290890,140.888022,2704_51,,0,,,,
2705_10,,旭ケ丘四丁目,,38.297540,140.888023,2705_10,,0,,,,
2705_50,,旭ケ丘四丁目,,38.297933,140.887916,2705_50,,0,,,,
2707_10,,旭ケ丘四丁目北,,38.300060,140.887642,2707_10,,0,,,,
2707_51,,旭ケ丘四丁目北,,38.300793,140.887473,2707_51,,0,,,,
2709_10,,旭丘堤二丁目,,38.301726,140.888492,2709_10,,0,,,,
2721_10,,東黒松団地入口,,38.306057,140.890230,2721_10,,0,,,,
2723_10,,東黒松団地,,38.308372,140.889450,2723_10,,0,,,,
3_11,,市民会館前,,38.265321,140.863441,3_11,,0,,,,
3_51,,市民会館前,,38.265235,140.863184,3_51,,0,,,,
3001_10,,苦竹一丁目,,38.268320,140.916234,3001_10,,0,,,,
3001_50,,苦竹一丁目,,38.268245,140.915300,3001_50,,0,,,,
3003_10,,苦竹駅前,,38.268975,140.919785,3003_10,,0,,,,
3003_50,,苦竹駅前,,38.269166,140.919893,3003_50,,0,,,,
3005_10,,東警察署入口,,38.269442,140.926989,3005_10,,0,,,,
3005_50,,東警察署入口,,38.269624,140.925809,3005_50,,0,,,,
3007_10,,日の出町一丁目,,38.269362,140.930676,3007_10,,0,,,,1
3007_11,,日の出町一丁目,,38.268647,140.930196,3007_11,,0,,,,2
3007_50,,日の出町一丁目,,38.269531,140.930700,3007_50,,0,,,,3
3007_51,,日の出町一丁目,,38.269904,140.929914,3007_51,,0,,,,4
3009_10,,日の出町二丁目,,38.269199,140.933924,3009_10,,0,,,,
3009_50,,日の出町二丁目,,38.269360,140.933968,3009_50,,0,,,,
3011_10,,扇町二丁目・小鶴老人福祉センター入口,,38.269075,140.944954,3011_10,,0,,,,
3011_50,,扇町二丁目・小鶴老人福祉センター入口,,38.268925,140.942717,3011_50,,0,,,,
3013_10,,扇町五丁目,,38.269747,140.949823,3013_10,,0,,,,
3013_50,,扇町五丁目,,38.269812,140.948926,3013_50,,0,,,,
3015_10,,扇町六丁目,,38.270205,140.952963,3015_10,,0,,,,1
3015_50,,扇町六丁目,,38.270423,140.953185,3015_50,,0,,,,2
3015_51,,扇町六丁目,,38.269326,140.954390,3015_51,,0,,,,3
3017_10,,福田町,,38.271704,140.959038,3017_10,,0,,,,
3017_50,,福田町,,38.271916,140.959056,3017_50,,0,,,,
3021_10,,誓渡寺前,,38.276539,140.977192,3021_10,,0,,,,
3021_50,,誓渡寺前,,38.276684,140.977070,3021_50,,0,,,,
3023_10,,栄一丁目,,38.278858,140.977377,3023_10,,0,,,,
3023_50,,栄一丁目,,38.278508,140.977389,3023_50,,0,,,,
3025_0,,陸前高砂駅,,38.273381,140.968469,3025_0,,0,,,,
3025_10,,陸前高砂駅,,38.273380,140.968469,3025_10,,0,,,,1
3025_50,,陸前高砂駅,,38.273251,140.968738,3025_50,,0,,,,2
3025_51,,陸前高砂駅,,38.273213,140.968631,3025_51,,0,,,,3
3047_10,,仙台市民球場前,,38.280588,140.935501,3047_10,,0,,,,
3047_50,,仙台市民球場前,,38.280757,140.935363,3047_50,,0,,,,
3049_10,,新田東一丁目,,38.279055,140.931155,3049_10,,0,,,,
3049_50,,新田東一丁目,,38.279179,140.930896,3049_50,,0,,,,
3051_0,,小鶴新田駅,,38.273657,140.935158,3051_0,,0,,,,
3051_10,,小鶴新田駅,,38.273659,140.935155,3051_10,,0,,,,
3051_11,,小鶴新田駅,,38.273675,140.934962,3051_11,,0,,,,
3053_10,,元気フィールド仙台前,,38.276809,140.933036,3053_10,,0,,,,
3053_11,,元気フィールド仙台前,,38.277453,140.934976,3053_11,,0,,,,
3053_50,,元気フィールド仙台前,,38.276923,140.933371,3053_50,,0,,,,
3053_51,,元気フィールド仙台前,,38.277201,140.934719,3053_51,,0,,,,
3055_10,,新田小学校入口,,38.275628,140.930173,3055_10,,0,,,,
3055_50,,新田小学校入口,,38.275642,140.930009,3055_50,,0,,,,
3063_10,,宮城野消防署前,,38.267178,140.930205,3063_10,,0,,,,
3063_50,,宮城野消防署前,,38.267172,140.929916,3063_50,,0,,,,
3065_10,,産業技術総合研究所前,,38.264550,140.930192,3065_10,,0,,,,
3065_50,,産業技術総合研究所前,,38.265188,140.929914,3065_50,,0,,,,
307_10,,ＪＲ東日本前,,38.257307,140.881191,307_10,,0,,,,
307_50,,ＪＲ東日本前,,38.256442,140.881836,307_50,,0,,,,
309_10,,五橋一丁目,,38.253895,140.881232,309_10,,0,,,,
309_50,,五橋一丁目,,38.253881,140.881594,309_50,,0,,,,
3101_10,,平成二丁目,,38.271407,140.915853,3101_10,,0,,,,
3101_50,,平成二丁目,,38.271301,140.915736,3101_50,,0,,,,
3103_10,,新田一丁目,,38.273470,140.918593,3103_10,,0,,,,
3103_50,,新田一丁目,,38.273261,140.918182,3103_50,,0,,,,
3105_10,,新田一丁目東,,38.274498,140.920172,3105_10,,0,,,,
3107_10,,新田二丁目,,38.274401,140.922662,3107_10,,0,,,,
3109_0,,新田二丁目東,,38.276718,140.925597,3109_0,,0,,,,
3109_10,,新田二丁目東,,38.276600,140.925757,3109_10,,0,,,,
311_10,,五橋駅,,38.251749,140.880816,311_10,,0,,,,
311_50,,五橋駅,,38.251785,140.881193,311_50,,0,,,,
313_11,,愛宕大橋,,38.247500,140.879732,313_11,,0,,,,
313_51,,愛宕大橋,,38.247361,140.879966,313_51,,0,,,,
314_10,,愛宕橋駅,,38.247569,140.881081,314_10,,0,,,,
314_50,,愛宕橋駅,,38.247188,140.882471,314_50,,0,,,,
315_10,,石垣町,,38.245448,140.884514,315_10,,0,,,,
315_50,,石垣町,,38.244833,140.885524,315_50,,0,,,,
3159_10,,白鳥二丁目東,,38.263337,140.986201,3159_10,,0,,,,
3159_50,,白鳥二丁目東,,38.263847,140.985303,3159_50,,0,,,,
317_10,,舟丁,,38.241313,140.887564,317_10,,0,,,,
317_50,,舟丁,,38.241822,140.887537,317_50,,0,,,,
319_10,,河原町駅南口,,38.238993,140.888527,319_10,,0,,,,
319_50,,河原町駅南口,,38.238483,140.889036,319_50,,0,,,,
3205_10,,田子小学校入口,,38.281060,140.964835,3205_10,,0,,,,
3207_10,,田子三丁目,,38.284258,140.964482,3207_10,,0,,,,
3209_10,,田子公会堂前,,38.285070,140.961611,3209_10,,0,,,,
321_11,,河原町駅東,,38.240462,140.888965,321_11,,0,,,,
321_51,,河原町駅東,,38.240564,140.889060,321_51,,0,,,,
3211_10,,上田子,,38.286616,140.959333,3211_10,,0,,,,
3211_50,,上田子,,38.287381,140.958368,3211_50,,0,,,,
3212_10,,田子西,,38.288762,140.957534,3212_10,,0,,,,
3212_50,,田子西,,38.288580,140.957339,3212_50,,0,,,,
3213_10,,田子鳥井,,38.291666,140.957012,3213_10,,0,,,,
3215_0,,余目,,38.293231,140.954018,3215_0,,0,,,,
3215_10,,余目,,38.293256,140.953985,3215_10,,0,,,,
3220_10,,宮城野高校入口,,38.282515,140.955227,3220_10,,0,,,,
3220_50,,宮城野高校入口,,38.282718,140.955310,3220_50,,0,,,,
3221_10,,田子西中央,,38.285888,140.958097,3221_10,,0,,,,
3221_50,,田子西中央,,38.285807,140.958028,3221_50,,0,,,,
3222_10,,田子西市営住宅前,,38.288202,140.956324,3222_10,,0,,,,
3222_50,,田子西市営住宅前,,38.288214,140.956187,3222_50,,0,,,,
3231_10,,田子小学校前,,38.280202,140.961425,3231_10,,0,,,,
3233_10,,福田町第二市営住宅前,,38.283323,140.961628,3233_10,,0,,,,
3235_11,,福田町第二市営住宅入口,,38.283478,140.963118,3235_11,,0,,,,
3235_51,,福田町第二市営住宅入口,,38.283334,140.962977,3235_51,,0,,,,
3249_10,,中野中学校前,,38.280939,140.975998,3249_10,,0,,,,
3249_50,,中野中学校前,,38.282048,140.976291,3249_50,,0,,,,
3251_10,,福室希望園前,,38.284088,140.971556,3251_10,,0,,,,
3251_50,,福室希望園前,,38.284181,140.971825,3251_50,,0,,,,
3253_10,,沼田,,38.284989,140.974582,3253_10,,0,,,,
3253_50,,沼田,,38.284954,140.974195,3253_50,,0,,,,
3255_10,,高橋,,38.284404,140.977858,3255_10,,0,,,,
3255_50,,高橋,,38.284838,140.977100,3255_50,,0,,,,
3256_10,,高砂市営住宅前,,38.283548,140.969420,3256_10,,0,,,,
3256_50,,高砂市営住宅前,,38.283475,140.969329,3256_50,,0,,,,
3257_10,,福室小学校入口,,38.282974,140.970463,3257_10,,0,,,,
3257_50,,福室小学校入口,,38.282891,140.970470,3257_50,,0,,,,
3258_0,,高砂市営住宅西,,38.284525,140.968852,3258_0,,0,,,,
3258_10,,高砂市営住宅西,,38.284566,140.968828,3258_10,,0,,,,
3401_10,,小鶴,,38.284413,140.930144,3401_10,,0,,,,
3401_50,,小鶴,,38.284437,140.929919,3401_50,,0,,,,
3403_10,,燕沢東,,38.286665,140.932873,3403_10,,0,,,,
3403_50,,燕沢東,,38.287176,140.933134,3403_50,,0,,,,
3405_10,,岩切一丁目南,,38.290909,140.934875,3405_10,,0,,,,
3405_50,,岩切一丁目南,,38.292236,140.936493,3405_50,,0,,,,
3407_10,,岩切一丁目,,38.292972,140.936184,3407_10,,0,,,,
3409_10,,今市上区,,38.295608,140.936976,3409_10,,0,,,,
3409_50,,今市上区,,38.295491,140.936836,3409_50,,0,,,,
3411_10,,今市中区,,38.299903,140.939954,3411_10,,0,,,,
3413_10,,岩切中学校入口,,38.302549,140.941800,3413_10,,0,,,,
3413_50,,岩切中学校入口,,38.302507,140.941721,3413_50,,0,,,,
3415_10,,今市橋,,38.305134,140.944409,3415_10,,0,,,,
3415_50,,今市橋,,38.305328,140.944387,3415_50,,0,,,,
3423_0,,岩切駅,,38.300975,140.954239,3423_0,,0,,,,
3423_10,,岩切駅,,38.300973,140.954239,3423_10,,0,,,,
3425_10,,岩切東コミュニティセンター入口,,38.303879,140.953036,3425_10,,0,,,,
3425_50,,岩切東コミュニティセンター入口,,38.304126,140.952951,3425_50,,0,,,,
3427_10,,八坂神社前,,38.305211,140.947652,3427_10,,0,,,,
3427_50,,八坂神社前,,38.305463,140.947761,3427_50,,0,,,,
3431_10,,岩切分台三丁目,,38.306594,140.955482,3431_10,,0,,,,
3431_50,,岩切分台三丁目,,38.306968,140.955407,3431_50,,0,,,,
3433_0,,岩切分台二丁目,,38.308848,140.959652,3433_0,,0,,,,
3433_10,,岩切分台二丁目,,38.308742,140.959521,3433_10,,0,,,,
4_10,,メディアテーク前,,38.265216,140.865574,4_10,,0,,,,
4_50,,メディアテーク前,,38.264926,140.865902,4_50,,0,,,,
4003_10,,新寺一丁目,,38.255369,140.884744,4003_10,,0,,,,
4005_10,,新寺三丁目,,38.255639,140.890424,4005_10,,0,,,,
4005_50,,新寺三丁目,,38.255972,140.888999,4005_50,,0,,,,
4006_10,,新寺三丁目西,,38.255975,140.887182,4006_10,,0,,,,
4006_50,,新寺三丁目西,,38.256229,140.886606,4006_50,,0,,,,
4007_10,,新寺四丁目・サンプラザ入口,,38.255317,140.893502,4007_10,,0,,,,
4007_50,,新寺四丁目・サンプラザ入口,,38.255477,140.893845,4007_50,,0,,,,
4009_10,,二軒茶屋・東華中学校前,,38.254118,140.897253,4009_10,,0,,,,
4009_50,,二軒茶屋・東華中学校前,,38.254425,140.897111,4009_50,,0,,,,
401_11,,青葉通一番町駅,,38.259683,140.871736,401_11,,0,,,,1
401_51,,青葉通一番町駅,,38.259653,140.873003,401_51,,0,,,,2
401_52,,青葉通一番町駅,,38.259682,140.873426,401_52,,0,,,,3
4011_10,,宮城野三丁目・聖和学園前,,38.253299,140.902114,4011_10,,0,,,,
4011_50,,宮城野三丁目・聖和学園前,,38.253426,140.903112,4011_50,,0,,,,
4013_10,,白萩町,,38.252213,140.908576,4013_10,,0,,,,
4013_50,,白萩町,,38.252167,140.909361,4013_50,,0,,,,
4015_10,,志波町,,38.251695,140.913726,4015_10,,0,,,,
4015_111,,志波町,,38.252587,140.911064,4015_111,,0,,,,
4015_151,,志波町,,38.252214,140.910798,4015_151,,0,,,,
4015_50,,志波町,,38.251882,140.914386,4015_50,,0,,,,
4017_10,,宮千代三丁目,,38.251576,140.916723,4017_10,,0,,,,
4017_50,,宮千代三丁目,,38.251800,140.916979,4017_50,,0,,,,
4019_10,,卸町駅,,38.251334,140.921712,4019_10,,0,,,,
4019_11,,卸町駅,,38.250515,140.920672,4019_11,,0,,,,
4019_50,,卸町駅,,38.251582,140.922352,4019_50,,0,,,,
4019_51,,卸町駅,,38.250431,140.920818,4019_51,,0,,,,
4021_10,,卸町二丁目,,38.251248,140.924801,4021_10,,0,,,,
4021_50,,卸町二丁目,,38.251491,140.924689,4021_50,,0,,,,
4029_10,,六丁の目南町,,38.249393,140.945679,4029_10,,0,,,,
4029_50,,六丁の目南町,,38.249891,140.945933,4029_50,,0,,,,
4033_10,,六丁の目北町,,38.250329,140.949257,4033_10,,0,,,,
4033_50,,六丁の目北町,,38.250602,140.947946,4033_50,,0,,,,
4035_10,,六丁の目東町,,38.250251,140.950833,4035_10,,0,,,,
4035_51,,六丁の目東町,,38.250380,140.953770,4035_51,,0,,,,
4039_10,,卸町東五丁目北,,38.256720,140.953982,4039_10,,0,,,,
4039_50,,卸町東五丁目北,,38.257011,140.954243,4039_50,,0,,,,
4041_10,,狐塚,,38.256714,140.956380,4041_10,,0,,,,
4041_50,,狐塚,,38.256998,140.958061,4041_50,,0,,,,
4042_10,,岡田西町,,38.255933,140.962957,4042_10,,0,,,,3
4042_11,,岡田西町,,38.256666,140.962324,4042_11,,0,,,,1
4042_50,,岡田西町,,38.256809,140.963343,4042_50,,0,,,,2
4043_10,,賀茂皇大神社前,,38.255705,140.963697,4043_10,,0,,,,
4043_50,,賀茂皇大神社前,,38.255745,140.963758,4043_50,,0,,,,
4045_10,,上岡田,,38.254695,140.965051,4045_10,,0,,,,
4045_50,,上岡田,,38.254681,140.965185,4045_50,,0,,,,
4047_10,,長屋前,,38.253509,140.968627,4047_10,,0,,,,
4047_50,,長屋前,,38.253630,140.968676,4047_50,,0,,,,
4049_10,,道場,,38.254827,140.973202,4049_10,,0,,,,
4049_50,,道場,,38.254862,140.973055,4049_50,,0,,,,
405_11,,晩翠草堂前,,38.259231,140.869311,405_11,,0,,,,1
405_51,,晩翠草堂前,,38.259201,140.870572,405_51,,0,,,,2
405_52,,晩翠草堂前,,38.259413,140.868335,405_52,,0,,,,3
4053_10,,岡田,,38.256232,140.977105,4053_10,,0,,,,
4055_11,,堀切,,38.248988,140.981510,4055_11,,0,,,,
4057_10,,新浜西,,38.244667,140.985267,4057_10,,0,,,,
4059_10,,新浜,,38.242593,140.987661,4059_10,,0,,,,
4061_10,,照徳寺前,,38.243674,140.989454,4061_10,,0,,,,
4063_10,,新浜浦通,,38.244948,140.990459,4063_10,,0,,,,
4065_0,,蒲生小田切,,38.249229,140.987088,4065_0,,0,,,,
4065_10,,蒲生小田切,,38.248309,140.989364,4065_10,,0,,,,
4067_10,,鍋沼,,38.253302,140.989222,4067_10,,0,,,,
4069_10,,上屋倉,,38.254969,140.987196,4069_10,,0,,,,
4069_11,,上屋倉,,38.255301,140.987630,4069_11,,0,,,,
4069_51,,上屋倉,,38.255404,140.987781,4069_51,,0,,,,
4071_10,,雑子袋,,38.255544,140.982323,4071_10,,0,,,,
4073_10,,岡田郵便局前,,38.255615,140.980580,4073_10,,0,,,,
4101_10,,宮千代一丁目,,38.255469,140.911625,4101_10,,0,,,,
4101_50,,宮千代一丁目,,38.255364,140.911383,4101_50,,0,,,,
4103_10,,萩野町一丁目,,38.258648,140.912219,4103_10,,0,,,,
4103_50,,萩野町一丁目,,38.258882,140.912032,4103_50,,0,,,,
4105_10,,銀杏町,,38.261280,140.913880,4105_10,,0,,,,
4105_50,,銀杏町,,38.261493,140.913515,4105_50,,0,,,,
4105_51,,銀杏町,,38.262691,140.912738,4105_51,,0,,,,
4106_10,,宮城野小仙台工業高前,,38.261028,140.916969,4106_10,,0,,,,
4106_50,,宮城野小仙台工業高前,,38.261240,140.916304,4106_50,,0,,,,
4107_10,,陸上自衛隊仙台駐屯地前,,38.261022,140.919733,4107_10,,0,,,,
4107_50,,陸上自衛隊仙台駐屯地前,,38.261203,140.919442,4107_50,,0,,,,
4107_51,,陸上自衛隊仙台駐屯地前,,38.260674,140.920842,4107_51,,0,,,,
4109_10,,トラックターミナル・中税務署入口,,38.261011,140.924771,4109_10,,0,,,,
4109_50,,トラックターミナル・中税務署入口,,38.261178,140.924845,4109_50,,0,,,,
411_11,,春日町,,38.265913,140.866698,411_11,,0,,,,
411_51,,春日町,,38.265701,140.866491,411_51,,0,,,,
4115_10,,卸町四丁目北,,38.261013,140.928569,4115_10,,0,,,,
4115_50,,卸町四丁目北,,38.261323,140.930977,4115_50,,0,,,,
4115_51,,卸町四丁目北,,38.262017,140.929911,4115_51,,0,,,,
4115_52,,卸町四丁目北,,38.260432,140.930197,4115_52,,0,,,,
4117_10,,日の出町三丁目,,38.260963,140.934784,4117_10,,0,,,,
4117_50,,日の出町三丁目,,38.261305,140.934608,4117_50,,0,,,,
4119_10,,自動車団地入口,,38.260977,140.939957,4119_10,,0,,,,
4119_50,,自動車団地入口,,38.261295,140.939406,4119_50,,0,,,,
4121_10,,自動車団地,,38.260977,140.942618,4121_10,,0,,,,
4121_50,,自動車団地,,38.261291,140.942100,4121_50,,0,,,,
4123_10,,宮城運輸支局前,,38.263531,140.946682,4123_10,,0,,,,
4123_50,,宮城運輸支局前,,38.263535,140.946453,4123_50,,0,,,,
4125_10,,扇町四丁目,,38.265539,140.949900,4125_10,,0,,,,
4125_50,,扇町四丁目,,38.265671,140.949675,4125_50,,0,,,,
4127_10,,食肉市場入口,,38.265539,140.954527,4127_10,,0,,,,
4127_50,,食肉市場入口,,38.265668,140.954570,4127_50,,0,,,,
4129_10,,福田町四丁目北,,38.265222,140.959726,4129_10,,0,,,,
4129_50,,福田町四丁目北,,38.264995,140.959831,4129_50,,0,,,,
413_11,,木町通一丁目,,38.268549,140.865885,413_11,,0,,,,1
413_12,,木町通一丁目,,38.267796,140.865596,413_12,,0,,,,2
413_51,,木町通一丁目,,38.268698,140.865539,413_51,,0,,,,3
4131_10,,福田町四丁目,,38.261879,140.959755,4131_10,,0,,,,
4131_50,,福田町四丁目,,38.261896,140.959884,4131_50,,0,,,,
4133_10,,福田町三丁目,,38.260940,140.962254,4133_10,,0,,,,
4133_50,,福田町三丁目,,38.261245,140.962588,4133_50,,0,,,,
4135_10,,鶴巻保育所前,,38.261924,140.964461,4135_10,,0,,,,
4135_50,,鶴巻保育所前,,38.262000,140.964341,4135_50,,0,,,,
4141_10,,扇町五丁目南,,38.266239,140.946618,4141_10,,0,,,,
4141_50,,扇町五丁目南,,38.266130,140.946839,4141_50,,0,,,,
415_11,,木町通小学校前,,38.270735,140.865190,415_11,,0,,,,
415_51,,木町通小学校前,,38.270693,140.864918,415_51,,0,,,,
4201_10,,卸町一丁目,,38.254118,140.920899,4201_10,,0,,,,
4201_50,,卸町一丁目,,38.253219,140.920523,4201_50,,0,,,,
4203_10,,卸町会館前,,38.256053,140.920872,4203_10,,0,,,,
4203_11,,卸町会館前,,38.257367,140.920876,4203_11,,0,,,,
4203_50,,卸町会館前,,38.255979,140.920512,4203_50,,0,,,,
4203_51,,卸町会館前,,38.257670,140.920504,4203_51,,0,,,,
4205_10,,卸町三丁目・能−ＢＯＸ前,,38.256700,140.923798,4205_10,,0,,,,
4205_50,,卸町三丁目・能−ＢＯＸ前,,38.256947,140.923668,4205_50,,0,,,,
4207_10,,卸町１０−ＢＯＸ前,,38.256696,140.925299,4207_10,,0,,,,
4207_50,,卸町１０−ＢＯＸ前,,38.256984,140.925290,4207_50,,0,,,,
4209_10,,配送センター前,,38.256708,140.928977,4209_10,,0,,,,
4209_50,,配送センター前,,38.256994,140.929061,4209_50,,0,,,,
4211_10,,中央卸売市場,,38.258940,140.929886,4211_10,,0,,,,
4211_50,,中央卸売市場,,38.258090,140.930169,4211_50,,0,,,,
4213_10,,中央卸売市場正門前,,38.256730,140.932645,4213_10,,0,,,,
4213_50,,中央卸売市場正門前,,38.257019,140.932633,4213_50,,0,,,,
4215_10,,卸町東三丁目,,38.256748,140.938586,4215_10,,0,,,,
4215_50,,卸町東三丁目,,38.257029,140.940119,4215_50,,0,,,,
4217_10,,若林体育館前,,38.256730,140.947518,4217_10,,0,,,,1
4217_11,,若林体育館前,,38.258011,140.946162,4217_11,,0,,,,3
4217_50,,若林体育館前,,38.257022,140.946688,4217_50,,0,,,,2
4217_51,,若林体育館前,,38.258016,140.946377,4217_51,,0,,,,4
4219_10,,東部工場団地,,38.256732,140.951982,4219_10,,0,,,,
4219_50,,東部工場団地,,38.257006,140.951585,4219_50,,0,,,,
4251_10,,南高屋敷,,38.252898,140.959582,4251_10,,0,,,,
4251_50,,南高屋敷,,38.253168,140.959334,4251_50,,0,,,,
4253_10,,鶴巻,,38.258902,140.966070,4253_10,,0,,,,
4253_50,,鶴巻,,38.259747,140.966433,4253_50,,0,,,,
4303_10,,宮城野原総合運動場前,,38.259190,140.901402,4303_10,,0,,,,
4303_50,,宮城野原総合運動場前,,38.259162,140.901219,4303_50,,0,,,,
4305_10,,仙台育英学園前,,38.261447,140.903383,4305_10,,0,,,,
4305_50,,仙台育英学園前,,38.261219,140.903003,4305_50,,0,,,,
4307_10,,仙台医療センター前,,38.260611,140.906475,4307_10,,0,,,,
4307_50,,仙台医療センター前,,38.260162,140.907806,4307_50,,0,,,,
4309_10,,仙台東年金事務所前,,38.260102,140.909608,4309_10,,0,,,,
4309_50,,仙台東年金事務所前,,38.259959,140.909201,4309_50,,0,,,,
45_10,,仙台駅北口,,38.262550,140.880773,45_10,,0,,,,
50_0,,仙台駅前,,38.259887,140.881519,50_0,,0,,,,
50_150,,仙台駅前,,38.259786,140.880376,50_150,,0,,,,17
50_151,,仙台駅前,,38.259865,140.880700,50_151,,0,,,,18
50_152,,仙台駅前,,38.259924,140.880935,50_152,,0,,,,19
50_153,,仙台駅前,,38.260030,140.880685,50_153,,0,,,,28
50_154,,仙台駅前,,38.259986,140.880506,50_154,,0,,,,27
50_210,,仙台駅前,,38.260077,140.879537,50_210,,0,,,,60
50_52,,仙台駅前,,38.259605,140.881036,50_52,,0,,,,9
50_53,,仙台駅前,,38.259552,140.880889,50_53,,0,,,,10
50_54,,仙台駅前,,38.259474,140.880693,50_54,,0,,,,11
50_550,,仙台駅前,,38.260839,140.878123,50_550,,0,,,,50
50_56,,仙台駅前,,38.259563,140.880451,50_56,,0,,,,13
50_560,,仙台駅前,,38.260891,140.878433,50_560,,0,,,,51
50_57,,仙台駅前,,38.259622,140.880635,50_57,,0,,,,14
50_58,,仙台駅前,,38.259674,140.880829,50_58,,0,,,,15
50_850,,仙台駅前,,38.259271,140.880621,50_850,,0,,,,5
50_851,,仙台駅前,,38.259338,140.880775,50_851,,0,,,,6
5001_10,,五橋三丁目,,38.252159,140.884977,5001_10,,0,,,,
5001_50,,五橋三丁目,,38.252214,140.885291,5001_50,,0,,,,
5003_10,,連坊一丁目,,38.251390,140.890781,5003_10,,0,,,,
5003_50,,連坊一丁目,,38.251708,140.889302,5003_50,,0,,,,
5005_10,,連坊駅・仙台一高前,,38.251055,140.893436,5005_10,,0,,,,
5005_50,,連坊駅・仙台一高前,,38.251039,140.894615,5005_50,,0,,,,
5007_10,,木ノ下一丁目,,38.249503,140.896361,5007_10,,0,,,,
5007_50,,木ノ下一丁目,,38.249592,140.896578,5007_50,,0,,,,
5009_10,,木ノ下四丁目,,38.249587,140.900350,5009_10,,0,,,,
5009_50,,木ノ下四丁目,,38.249656,140.900309,5009_50,,0,,,,
5011_10,,国分寺薬師堂前,,38.249596,140.902461,5011_10,,0,,,,
5011_50,,国分寺薬師堂前,,38.249710,140.902420,5011_50,,0,,,,
5013_10,,大和町一丁目,,38.249408,140.906904,5013_10,,0,,,,
5013_50,,大和町一丁目,,38.249386,140.908143,5013_50,,0,,,,
5015_10,,大和町二丁目,,38.248829,140.912783,5015_10,,0,,,,
5015_50,,大和町二丁目,,38.249035,140.911803,5015_50,,0,,,,
5017_10,,大和小学校入口,,38.248673,140.916892,5017_10,,0,,,,
5017_50,,大和小学校入口,,38.248797,140.916880,5017_50,,0,,,,
5019_10,,大和小学校東,,38.248538,140.919554,5019_10,,0,,,,
5019_50,,大和小学校東,,38.248686,140.919328,5019_50,,0,,,,
5021_10,,蒲町歩道橋前,,38.247206,140.922450,5021_10,,0,,,,
5021_111,,蒲町歩道橋前,,38.247092,140.924347,5021_111,,0,,,,
5021_151,,蒲町歩道橋前,,38.246648,140.924611,5021_151,,0,,,,
5021_50,,蒲町歩道橋前,,38.247241,140.922748,5021_50,,0,,,,
5031_0,,薬師堂駅,,38.249917,140.905041,5031_0,,0,,,,
5031_10,,薬師堂駅,,38.249938,140.904836,5031_10,,0,,,,1
5031_11,,薬師堂駅,,38.249921,140.905052,5031_11,,0,,,,2
5033_10,,西新丁,,38.248028,140.899279,5033_10,,0,,,,
5033_50,,西新丁,,38.247604,140.899329,5033_50,,0,,,,
5041_10,,東七番丁・荒町市民センター前,,38.249174,140.882717,5041_10,,0,,,,
5041_50,,東七番丁・荒町市民センター前,,38.249424,140.881696,5041_50,,0,,,,
5043_50,,東八番丁,,38.248849,140.884675,5043_50,,0,,,,
5045_10,,荒町,,38.248441,140.886449,5045_10,,0,,,,
5045_50,,荒町,,38.248412,140.886977,5045_50,,0,,,,
5047_10,,三百人町西,,38.247199,140.890579,5047_10,,0,,,,
5047_50,,三百人町西,,38.247122,140.891217,5047_50,,0,,,,
5049_10,,三百人町,,38.246531,140.894360,5049_10,,0,,,,
5049_50,,三百人町,,38.246514,140.894684,5049_50,,0,,,,
5051_10,,保春院前丁,,38.245304,140.899164,5051_10,,0,,,,
5051_50,,保春院前丁,,38.246139,140.896863,5051_50,,0,,,,
5053_10,,若林区役所前,,38.244962,140.901140,5053_10,,0,,,,
5053_50,,若林区役所前,,38.245083,140.900885,5053_50,,0,,,,
5055_10,,一本杉町,,38.244584,140.903198,5055_10,,0,,,,
5055_50,,一本杉町,,38.244273,140.904670,5055_50,,0,,,,
5055_51,,一本杉町,,38.243772,140.903787,5055_51,,0,,,,
5056_10,,一本杉町東,,38.243543,140.907472,5056_10,,0,,,,
5056_50,,一本杉町東,,38.243461,140.908037,5056_50,,0,,,,
5057_10,,中倉一丁目,,38.243062,140.909858,5057_10,,0,,,,
5057_50,,中倉一丁目,,38.243127,140.912023,5057_50,,0,,,,
5058_10,,一本杉町交差点,,38.242965,140.908424,5058_10,,0,,,,
5058_50,,一本杉町交差点,,38.243538,140.908939,5058_50,,0,,,,
5059_11,,遠見塚三丁目,,38.243041,140.914923,5059_11,,0,,,,
5059_51,,遠見塚三丁目,,38.243089,140.915057,5059_51,,0,,,,
5060_10,,若林消防署前,,38.242653,140.914236,5060_10,,0,,,,
5060_50,,若林消防署前,,38.242637,140.914387,5060_50,,0,,,,
5061_10,,中倉二丁目,,38.243537,140.918356,5061_10,,0,,,,
5061_50,,中倉二丁目,,38.243659,140.918674,5061_50,,0,,,,
5063_11,,蒲町,,38.242094,140.919990,5063_11,,0,,,,
5063_110,,蒲町,,38.244240,140.924334,5063_110,,0,,,,
5063_150,,蒲町,,38.244365,140.924291,5063_150,,0,,,,
5063_51,,蒲町,,38.243339,140.921922,5063_51,,0,,,,
5065_10,,蒲町小学校前,,38.243938,140.928122,5065_10,,0,,,,
5065_50,,蒲町小学校前,,38.244028,140.928024,5065_50,,0,,,,
5067_10,,蒲町東,,38.243565,140.933563,5067_10,,0,,,,
5067_50,,蒲町東,,38.243686,140.933713,5067_50,,0,,,,
5069_10,,荒井二丁目,,38.243312,140.937404,5069_10,,0,,,,
5069_50,,荒井二丁目,,38.243434,140.937193,5069_50,,0,,,,
5071_10,,七郷小学校前,,38.240389,140.944748,5071_10,,0,,,,
5071_50,,七郷小学校前,,38.240407,140.944994,5071_50,,0,,,,
5073_10,,七郷中学校前,,38.238314,140.945415,5073_10,,0,,,,
5073_50,,七郷中学校前,,38.238256,140.945656,5073_50,,0,,,,
5075_10,,荒井八丁目,,38.236414,140.947741,5075_10,,0,,,,
5075_50,,荒井八丁目,,38.237033,140.947190,5075_50,,0,,,,
5077_10,,神屋敷,,38.229427,140.956660,5077_10,,0,,,,
5077_50,,神屋敷,,38.229430,140.956912,5077_50,,0,,,,
5079_10,,笹新田西,,38.227387,140.964002,5079_10,,0,,,,
5079_50,,笹新田西,,38.227458,140.964016,5079_50,,0,,,,
5081_10,,笹新田,,38.226720,140.966180,5081_10,,0,,,,
5081_50,,笹新田,,38.226794,140.966293,5081_50,,0,,,,
5083_10,,石場,,38.225330,140.968870,5083_10,,0,,,,
5083_50,,石場,,38.225373,140.968916,5083_50,,0,,,,
5085_0,,南長沼,,38.223082,140.974847,5085_0,,0,,,,
5085_10,,南長沼,,38.223041,140.974829,5085_10,,0,,,,
5099_0,,震災遺構仙台市立荒浜小学校前,,38.222336,140.980564,5099_0,,0,,,,
5099_10,,震災遺構仙台市立荒浜小学校前,,38.221775,140.980613,5099_10,,0,,,,
5111_10,,七郷市民センター前,,38.242793,140.941676,5111_10,,0,,,,
5111_50,,七郷市民センター前,,38.243001,140.941327,5111_50,,0,,,,
5117_10,,揚戸,,38.239246,140.947288,5117_10,,0,,,,
5117_50,,揚戸,,38.239320,140.947345,5117_50,,0,,,,
5121_10,,広瀬,,38.238431,140.949218,5121_10,,0,,,,
5123_10,,南原田,,38.237245,140.954804,5123_10,,0,,,,
5125_10,,四ツ谷,,38.236103,140.959890,5125_10,,0,,,,
5127_10,,農業園芸センター前,,38.236121,140.965902,5127_10,,0,,,,
5129_10,,神屋敷北,,38.231072,140.955001,5129_10,,0,,,,
5129_50,,神屋敷北,,38.230588,140.955171,5129_50,,0,,,,
5159_10,,河原町二丁目,,38.239737,140.893500,5159_10,,0,,,,
5159_50,,河原町二丁目,,38.239809,140.893515,5159_50,,0,,,,
5161_10,,古城一丁目,,38.237738,140.895554,5161_10,,0,,,,
5161_50,,古城一丁目,,38.237731,140.895801,5161_50,,0,,,,
5163_10,,古城二丁目,,38.237307,140.898192,5163_10,,0,,,,
5163_50,,古城二丁目,,38.237305,140.898396,5163_50,,0,,,,
5165_10,,南小泉三丁目中,,38.238598,140.900608,5165_10,,0,,,,
5165_50,,南小泉三丁目中,,38.238714,140.900207,5165_50,,0,,,,
5181_0,,荒井駅,,38.244673,140.947914,5181_0,,0,,,,
5181_10,,荒井駅,,38.244771,140.948570,5181_10,,0,,,,1
5181_11,,荒井駅,,38.244788,140.948281,5181_11,,0,,,,2
5183_10,,荒井六丁目,,38.242129,140.946044,5183_10,,0,,,,
5183_50,,荒井六丁目,,38.242218,140.946241,5183_50,,0,,,,
5185_10,,荒井五丁目,,38.245918,140.945522,5185_10,,0,,,,
5185_50,,荒井五丁目,,38.245824,140.945697,5185_50,,0,,,,
5187_10,,卸町東四丁目,,38.253430,140.945862,5187_10,,0,,,,
5187_50,,卸町東四丁目,,38.253680,140.946112,5187_50,,0,,,,
5189_10,,宮城県印刷会館前,,38.260529,140.946311,5189_10,,0,,,,
5189_50,,宮城県印刷会館前,,38.260379,140.946491,5189_50,,0,,,,
5201_10,,若林区文化センター入口,,38.243081,140.903465,5201_10,,0,,,,
5201_50,,若林区文化センター入口,,38.242466,140.903309,5201_50,,0,,,,
5203_10,,南小泉二丁目,,38.240932,140.902837,5203_10,,0,,,,
5205_10,,南小泉三丁目,,38.238264,140.902754,5205_10,,0,,,,
5205_50,,南小泉三丁目,,38.238332,140.902805,5205_50,,0,,,,
5207_10,,南小泉四丁目,,38.237209,140.904650,5207_10,,0,,,,
5207_50,,南小泉四丁目,,38.237206,140.904698,5207_50,,0,,,,
5209_10,,高原住宅前,,38.235436,140.903838,5209_10,,0,,,,
5209_50,,高原住宅前,,38.234935,140.903759,5209_50,,0,,,,
5211_50,,古城三丁目西,,38.232892,140.903907,5211_50,,0,,,,
5213_10,,古城三丁目,,38.231913,140.906094,5213_10,,0,,,,
5213_50,,古城三丁目,,38.231991,140.905727,5213_50,,0,,,,
5217_11,,古城三丁目東,,38.234648,140.908456,5217_11,,0,,,,
5217_50,,古城三丁目東,,38.234201,140.909936,5217_50,,0,,,,
5217_51,,古城三丁目東,,38.235297,140.908432,5217_51,,0,,,,
5219_10,,遠見塚小学校前,,38.236445,140.913840,5219_10,,0,,,,
5219_50,,遠見塚小学校前,,38.236775,140.913546,5219_50,,0,,,,
5221_10,,遠見塚,,38.240410,140.917009,5221_10,,0,,,,
5221_50,,遠見塚,,38.240508,140.917177,5221_50,,0,,,,
5222_10,,遠見塚東,,38.240112,140.919265,5222_10,,0,,,,
5222_11,,遠見塚東,,38.240113,140.919311,5222_11,,0,,,,
5223_0,,市営バス霞の目営業所前,,38.240281,140.920471,5223_0,,0,,,,
5223_10,,市営バス霞の目営業所前,,38.240337,140.920405,5223_10,,0,,,,
5223_11,,市営バス霞の目営業所前,,38.240384,140.920418,5223_11,,0,,,,
5223_50,,市営バス霞の目営業所前,,38.240226,140.920545,5223_50,,0,,,,
5225_10,,霞目飛行場前,,38.237353,140.924601,5225_10,,0,,,,
5227_0,,霞の目,,38.235247,140.927783,5227_0,,0,,,,
5227_10,,霞の目,,38.235174,140.927466,5227_10,,0,,,,
5227_50,,霞の目,,38.235263,140.928107,5227_50,,0,,,,
53_10,,あおば通駅,,38.260682,140.877194,53_10,,0,,,,1
53_50,,あおば通駅,,38.260345,140.877178,53_50,,0,,,,2
53_51,,あおば通駅,,38.260391,140.877462,53_51,,0,,,,3
5301_10,,広瀬橋,,38.235443,140.890579,5301_10,,0,,,,
5301_50,,広瀬橋,,38.235533,140.890608,5301_50,,0,,,,
5303_10,,若林一丁目,,38.234234,140.892666,5303_10,,0,,,,
5303_50,,若林一丁目,,38.233726,140.894447,5303_50,,0,,,,
5305_10,,若林二丁目,,38.232894,140.895994,5305_10,,0,,,,
5305_50,,若林二丁目,,38.232806,140.896437,5305_50,,0,,,,
5307_10,,若林三丁目,,38.231617,140.898854,5307_10,,0,,,,
5307_50,,若林三丁目,,38.232064,140.898124,5307_50,,0,,,,
5309_10,,若林小学校前,,38.230079,140.901753,5309_10,,0,,,,
5309_50,,若林小学校前,,38.230897,140.900718,5309_50,,0,,,,
5311_10,,若林七丁目,,38.227356,140.905950,5311_10,,0,,,,
5311_50,,若林七丁目,,38.227328,140.906209,5311_50,,0,,,,
5313_10,,沖野四丁目,,38.225195,140.908536,5313_10,,0,,,,
5313_50,,沖野四丁目,,38.225138,140.908641,5313_50,,0,,,,
5315_10,,沖野四丁目南,,38.221454,140.910646,5315_10,,0,,,,
5315_50,,沖野四丁目南,,38.221183,140.911347,5315_50,,0,,,,
5315_51,,沖野四丁目南,,38.220674,140.911039,5315_51,,0,,,,
5317_10,,上飯田二丁目,,38.220304,140.914302,5317_10,,0,,,,
5317_50,,上飯田二丁目,,38.220292,140.914488,5317_50,,0,,,,
5319_10,,上飯田二丁目東,,38.219812,140.916257,5319_10,,0,,,,
5319_50,,上飯田二丁目東,,38.219691,140.916932,5319_50,,0,,,,
5321_10,,上飯田三丁目,,38.218680,140.920471,5321_10,,0,,,,
5321_50,,上飯田三丁目,,38.219031,140.919502,5321_50,,0,,,,
5321_51,,上飯田三丁目,,38.219811,140.920322,5321_51,,0,,,,
5323_10,,上飯田四丁目,,38.218128,140.923293,5323_10,,0,,,,
5323_50,,上飯田四丁目,,38.218088,140.924263,5323_50,,0,,,,
5324_10,,上飯田四丁目東,,38.217935,140.926668,5324_10,,0,,,,
5325_0,,東高校入口,,38.217856,140.928163,5325_0,,0,,,,
5325_10,,東高校入口,,38.217808,140.929180,5325_10,,0,,,,
5325_11,,東高校入口,,38.217540,140.928182,5325_11,,0,,,,
5325_50,,東高校入口,,38.218011,140.927018,5325_50,,0,,,,
5326_10,,六郷交番前,,38.216313,140.931399,5326_10,,0,,,,
5326_50,,六郷交番前,,38.216428,140.931512,5326_50,,0,,,,
5327_0,,六郷小学校前,,38.215485,140.932020,5327_0,,0,,,,
5327_10,,六郷小学校前,,38.215022,140.932178,5327_10,,0,,,,
5327_11,,六郷小学校前,,38.215542,140.932469,5327_11,,0,,,,
5327_50,,六郷小学校前,,38.215245,140.932209,5327_50,,0,,,,
5327_51,,六郷小学校前,,38.215610,140.933102,5327_51,,0,,,,
5328_10,,ＪＡ仙台六郷支店前,,38.212803,140.933456,5328_10,,0,,,,
5328_50,,ＪＡ仙台六郷支店前,,38.213163,140.933424,5328_50,,0,,,,
5329_10,,小在家橋,,38.211190,140.934694,5329_10,,0,,,,
5329_50,,小在家橋,,38.211213,140.934776,5329_50,,0,,,,
5331_10,,二木,,38.204875,140.942445,5331_10,,0,,,,
5331_50,,二木,,38.204869,140.942565,5331_50,,0,,,,
5333_10,,種次入口,,38.203295,140.944580,5333_10,,0,,,,
5333_50,,種次入口,,38.203555,140.944508,5333_50,,0,,,,
5335_10,,二木山王,,38.201297,140.947430,5335_10,,0,,,,
5335_50,,二木山王,,38.201487,140.947497,5335_50,,0,,,,
5337_10,,東六郷コミュニティセンター前,,38.199730,140.950655,5337_10,,0,,,,
5337_50,,東六郷コミュニティセンター前,,38.199847,140.950363,5337_50,,0,,,,
5339_10,,井土浜,,38.199690,140.957783,5339_10,,0,,,,
5339_50,,井土浜,,38.199774,140.957817,5339_50,,0,,,,
5341_0,,中野,,38.192822,140.954874,5341_0,,0,,,,
5341_10,,中野,,38.192819,140.954875,5341_10,,0,,,,
5401_10,,上飯田西,,38.217940,140.912069,5401_10,,0,,,,
5401_50,,上飯田西,,38.218208,140.912071,5401_50,,0,,,,
5403_10,,日辺田中,,38.213546,140.912310,5403_10,,0,,,,
5411_10,,日辺徳照寺前,,38.211451,140.913878,5411_10,,0,,,,
5413_10,,日辺,,38.211271,140.916665,5413_10,,0,,,,
5413_50,,日辺,,38.211239,140.916614,5413_50,,0,,,,
5415_10,,日辺沖田東,,38.212905,140.917010,5415_10,,0,,,,
5454_10,,上飯田前田,,38.214901,140.917733,5454_10,,0,,,,
5455_10,,上飯田・ニッペリア前,,38.214289,140.920737,5455_10,,0,,,,
5455_50,,上飯田・ニッペリア前,,38.214396,140.920737,5455_50,,0,,,,
5457_10,,日辺高田,,38.211809,140.920515,5457_10,,0,,,,
5459_10,,今泉,,38.211113,140.925340,5459_10,,0,,,,
5461_10,,今泉神社前,,38.212564,140.927226,5461_10,,0,,,,
5461_50,,今泉神社前,,38.212592,140.927171,5461_50,,0,,,,
5463_10,,六郷中学校入口,,38.214038,140.930268,5463_10,,0,,,,
5465_10,,久保田東,,38.209395,140.929144,5465_10,,0,,,,
5467_10,,今泉温水プール前,,38.205908,140.928357,5467_10,,0,,,,
5469_10,,小在家,,38.205529,140.932528,5469_10,,0,,,,
5471_10,,古川,,38.202767,140.935438,5471_10,,0,,,,
5473_10,,今泉中村,,38.199428,140.937205,5473_10,,0,,,,
5475_10,,種次,,38.196869,140.943796,5475_10,,0,,,,
5477_0,,竹野花,,38.193633,140.943345,5477_0,,0,,,,
5477_10,,竹野花,,38.193627,140.943342,5477_10,,0,,,,
55_10,,電力ビル前,,38.261780,140.874406,55_10,,0,,,,13
55_11,,電力ビル前,,38.261732,140.874432,55_11,,0,,,,12
55_12,,電力ビル前,,38.261660,140.874473,55_12,,0,,,,12
55_152,,電力ビル前,,38.262058,140.873608,55_152,,0,,,,1
55_51,,電力ビル前,,38.261801,140.873765,55_51,,0,,,,4
55_52,,電力ビル前,,38.261916,140.873708,55_52,,0,,,,3
5500_10,,築道,,38.215539,140.935854,5500_10,,0,,,,
5500_50,,築道,,38.215564,140.935708,5500_50,,0,,,,
5501_10,,下飯田入口,,38.216270,140.939906,5501_10,,0,,,,
5503_10,,下飯田中区,,38.216275,140.943179,5503_10,,0,,,,
5505_10,,下飯田,,38.216184,140.946656,5505_10,,0,,,,
5505_51,,下飯田,,38.215462,140.947555,5505_51,,0,,,,
5505_52,,下飯田,,38.216207,140.946835,5505_52,,0,,,,
5505_53,,下飯田,,38.216002,140.948771,5505_53,,0,,,,
5507_10,,赤沼,,38.213351,140.946659,5507_10,,0,,,,
5509_10,,沼屋敷,,38.210359,140.950392,5509_10,,0,,,,
5509_50,,沼屋敷,,38.210402,140.950414,5509_50,,0,,,,
5511_10,,三本塚,,38.209811,140.953144,5511_10,,0,,,,
5513_10,,長屋敷,,38.213942,140.956243,5513_10,,0,,,,
5515_0,,藤田,,38.222028,140.950398,5515_0,,0,,,,
5515_10,,藤田,,38.222206,140.949724,5515_10,,0,,,,
5515_50,,藤田,,38.222152,140.949781,5515_50,,0,,,,
5517_10,,藤田西,,38.222558,140.947584,5517_10,,0,,,,
5519_10,,藤田北裏,,38.224835,140.946691,5519_10,,0,,,,
5521_10,,霞の目東,,38.235208,140.930608,5521_10,,0,,,,
5523_10,,荒井東二丁目,,38.234654,140.949976,5523_10,,0,,,,
5523_50,,荒井東二丁目,,38.234733,140.950064,5523_50,,0,,,,
5601_10,,上飯田一丁目,,38.221936,140.913296,5601_10,,0,,,,
5601_50,,上飯田一丁目,,38.221462,140.913189,5601_50,,0,,,,
5603_10,,沖野小学校前,,38.224228,140.913428,5603_10,,0,,,,
5603_50,,沖野小学校前,,38.224772,140.913317,5603_50,,0,,,,
5605_10,,沖野三丁目,,38.227890,140.912841,5605_10,,0,,,,
5605_50,,沖野三丁目,,38.228000,140.912722,5605_50,,0,,,,
5609_10,,沖野二丁目,,38.230118,140.912648,5609_10,,0,,,,
5609_50,,沖野二丁目,,38.230207,140.912676,5609_50,,0,,,,
5611_10,,沖野中学校前,,38.230209,140.915455,5611_10,,0,,,,
5611_50,,沖野中学校前,,38.230265,140.915282,5611_50,,0,,,,
5613_0,,沖野,,38.229988,140.919108,5613_0,,0,,,,
5613_10,,沖野,,38.229992,140.919131,5613_10,,0,,,,
5613_50,,沖野,,38.229938,140.919964,5613_50,,0,,,,
5615_10,,沖野市民センター前,,38.225447,140.922701,5615_10,,0,,,,
5615_50,,沖野市民センター前,,38.225367,140.922752,5615_50,,0,,,,
5617_10,,沖野東小学校前,,38.222315,140.921339,5617_10,,0,,,,
5617_50,,沖野東小学校前,,38.222345,140.921420,5617_50,,0,,,,
5619_10,,沖野一丁目,,38.231942,140.909468,5619_10,,0,,,,
5619_50,,沖野一丁目,,38.232375,140.909591,5619_50,,0,,,,
5621_10,,東北電力南営業所前,,38.230602,140.908600,5621_10,,0,,,,
5621_50,,東北電力南営業所前,,38.231488,140.908050,5621_50,,0,,,,
5653_10,,大和町宮城の萩大通り,,38.247213,140.909617,5653_10,,0,,,,
5653_50,,大和町宮城の萩大通り,,38.247198,140.909992,5653_50,,0,,,,
5655_10,,南小泉二丁目東,,38.240850,140.907751,5655_10,,0,,,,
5655_50,,南小泉二丁目東,,38.240806,140.908071,5655_50,,0,,,,
5657_10,,南小泉四丁目東,,38.238234,140.906951,5657_10,,0,,,,
5657_50,,南小泉四丁目東,,38.237983,140.907217,5657_50,,0,,,,
60_10,,広瀬通駅,,38.262967,140.874112,60_10,,0,,,,
60_50,,広瀬通駅,,38.262772,140.875894,60_50,,0,,,,
6000_0,,市立病院,,38.231775,140.889258,6000_0,,0,,,,
6000_50,,市立病院,,38.231977,140.888789,6000_50,,0,,,,
6001_10,,長町一丁目駅,,38.234159,140.887326,6001_10,,0,,,,
6001_50,,長町一丁目駅,,38.233626,140.887247,6001_50,,0,,,,
6002_10,,長町一丁目東,,38.234786,140.888560,6002_10,,0,,,,
6002_50,,長町一丁目東,,38.234418,140.888635,6002_50,,0,,,,
6003_10,,長町三丁目,,38.231603,140.885910,6003_10,,0,,,,
6003_50,,長町三丁目,,38.231801,140.886234,6003_50,,0,,,,
6005_10,,長町三丁目南,,38.230518,140.885321,6005_10,,0,,,,
6005_50,,長町三丁目南,,38.230410,140.885488,6005_50,,0,,,,
6007_10,,長町駅・たいはっくる前,,38.228002,140.884745,6007_10,,0,,,,
6007_50,,長町駅・たいはっくる前,,38.227338,140.884949,6007_50,,0,,,,
6008_10,,長町駅西口,,38.226140,140.883332,6008_10,,0,,,,
6008_50,,長町駅西口,,38.226095,140.883990,6008_50,,0,,,,
6015_10,,南警察署前,,38.224160,140.884038,6015_10,,0,,,,
6015_50,,南警察署前,,38.223219,140.883955,6015_50,,0,,,,
6017_10,,長町六丁目,,38.220166,140.882929,6017_10,,0,,,,
6017_50,,長町六丁目,,38.219767,140.883125,6017_50,,0,,,,
6019_10,,諏訪町,,38.214047,140.884577,6019_10,,0,,,,
6019_50,,諏訪町,,38.214533,140.884701,6019_50,,0,,,,
6020_10,,太子堂駅前,,38.217232,140.882312,6020_10,,0,,,,
6020_50,,太子堂駅前,,38.216856,140.883096,6020_50,,0,,,,
6021_10,,東大野田,,38.210045,140.884537,6021_10,,0,,,,
6021_50,,東大野田,,38.210449,140.884595,6021_50,,0,,,,
6023_10,,中田一丁目,,38.202920,140.884785,6023_10,,0,,,,
6023_50,,中田一丁目,,38.203382,140.884939,6023_50,,0,,,,
6025_11,,中田小学校前,,38.200329,140.886549,6025_11,,0,,,,
6025_51,,中田小学校前,,38.200486,140.886778,6025_51,,0,,,,
6027_111,,中田五丁目,,38.197328,140.886106,6027_111,,0,,,,
6027_51,,中田五丁目,,38.197484,140.885770,6027_51,,0,,,,
6029_10,,中田三丁目,,38.199302,140.884963,6029_10,,0,,,,
6029_50,,中田三丁目,,38.198886,140.885048,6029_50,,0,,,,
6101_10,,中田二丁目,,38.200824,140.889578,6101_10,,0,,,,
6101_50,,中田二丁目,,38.200856,140.889605,6101_50,,0,,,,
6103_10,,東中田六丁目,,38.200317,140.894450,6103_10,,0,,,,
6103_50,,東中田六丁目,,38.200353,140.894581,6103_50,,0,,,,
6104_50,,東中田二丁目,,38.200680,140.898084,6104_50,,0,,,,
6105_10,,東中田五丁目,,38.200539,140.898922,6105_10,,0,,,,
6105_50,,東中田五丁目,,38.200414,140.900323,6105_50,,0,,,,
6106_10,,中田中央公園入口,,38.199962,140.902315,6106_10,,0,,,,
6106_50,,中田中央公園入口,,38.199961,140.902530,6106_50,,0,,,,
6107_10,,袋原,,38.199749,140.905373,6107_10,,0,,,,
6107_11,,袋原,,38.199995,140.907284,6107_11,,0,,,,
6107_50,,袋原,,38.199773,140.905515,6107_50,,0,,,,
6107_51,,袋原,,38.199980,140.907059,6107_51,,0,,,,
6108_10,,袋原四丁目,,38.197897,140.908300,6108_10,,0,,,,
6108_50,,袋原四丁目,,38.198504,140.908066,6108_50,,0,,,,
6109_10,,畑中,,38.195066,140.907940,6109_10,,0,,,,
6109_50,,畑中,,38.195042,140.908142,6109_50,,0,,,,
6111_10,,袋原市営住宅前,,38.193883,140.906365,6111_10,,0,,,,
6111_50,,袋原市営住宅前,,38.193929,140.906458,6111_50,,0,,,,
6112_10,,袋原南,,38.192114,140.904717,6112_10,,0,,,,
6112_50,,袋原南,,38.191865,140.904485,6112_50,,0,,,,
6113_10,,堰場,,38.189967,140.903668,6113_10,,0,,,,
6113_50,,堰場,,38.190384,140.903409,6113_50,,0,,,,
6114_10,,境,,38.190480,140.906198,6114_10,,0,,,,
6115_10,,四郎丸小学校前,,38.190936,140.909807,6115_10,,0,,,,
6116_10,,東中田市民センター前,,38.192238,140.912831,6116_10,,0,,,,
6116_50,,東中田市民センター前,,38.192252,140.912760,6116_50,,0,,,,
6117_10,,四郎丸市営住宅前,,38.192367,140.915971,6117_10,,0,,,,
6119_10,,浜堀,,38.191816,140.919843,6119_10,,0,,,,
6121_10,,昭和北,,38.191658,140.923309,6121_10,,0,,,,
6123_0,,四郎丸,,38.189547,140.929342,6123_0,,0,,,,
6123_10,,四郎丸,,38.189522,140.929254,6123_10,,0,,,,
6133_10,,中田中学校前,,38.197345,140.889194,6133_10,,0,,,,
6133_50,,中田中学校前,,38.197523,140.889407,6133_50,,0,,,,
6135_10,,中田神明東,,38.197012,140.893004,6135_10,,0,,,,
6135_50,,中田神明東,,38.196926,140.893096,6135_50,,0,,,,
6136_10,,中田二軒橋,,38.195952,140.893033,6136_10,,0,,,,
6136_50,,中田二軒橋,,38.195669,140.893739,6136_50,,0,,,,
6137_10,,ＪＣＨＯ仙台南病院入口,,38.192431,140.897280,6137_10,,0,,,,
6137_50,,ＪＣＨＯ仙台南病院入口,,38.192496,140.897704,6137_50,,0,,,,
6139_10,,東前田,,38.192142,140.900636,6139_10,,0,,,,
6139_50,,東前田,,38.192205,140.900700,6139_50,,0,,,,
6141_10,,袋原三丁目,,38.200118,140.909903,6141_10,,0,,,,
6141_50,,袋原三丁目,,38.200130,140.910027,6141_50,,0,,,,
6142_10,,袋原中学校前,,38.199931,140.912279,6142_10,,0,,,,
6142_50,,袋原中学校前,,38.199982,140.912797,6142_50,,0,,,,
6143_10,,袋原落合ポンプ場前,,38.199414,140.915707,6143_10,,0,,,,
6143_50,,袋原落合ポンプ場前,,38.199522,140.915655,6143_50,,0,,,,
6145_10,,観音堂前,,38.196925,140.918321,6145_10,,0,,,,
6147_10,,四郎丸東市営住宅前,,38.195664,140.919746,6147_10,,0,,,,
6148_10,,東四郎丸,,38.193830,140.919678,6148_10,,0,,,,
6148_50,,東四郎丸,,38.193857,140.919860,6148_50,,0,,,,
6151_10,,中法地公園前,,38.201760,140.897917,6151_10,,0,,,,
6151_50,,中法地公園前,,38.201515,140.897857,6151_50,,0,,,,
6153_10,,東中田一丁目,,38.202959,140.898694,6153_10,,0,,,,
6153_50,,東中田一丁目,,38.203127,140.899280,6153_50,,0,,,,
6155_10,,東中田三丁目,,38.201895,140.901408,6155_10,,0,,,,
6155_50,,東中田三丁目,,38.202423,140.901553,6155_50,,0,,,,
6157_10,,中田中央公園前,,38.198440,140.901396,6157_10,,0,,,,
6157_50,,中田中央公園前,,38.199029,140.901534,6157_50,,0,,,,
6159_10,,袋原小学校前,,38.197537,140.904112,6159_10,,0,,,,
6159_50,,袋原小学校前,,38.197619,140.903997,6159_50,,0,,,,
6161_10,,袋原台,,38.197222,140.906710,6161_10,,0,,,,
6161_50,,袋原台,,38.197398,140.906347,6161_50,,0,,,,
6163_10,,南仙台駅東口,,38.197145,140.883679,6163_10,,0,,,,
6163_50,,南仙台駅東口,,38.197292,140.883666,6163_50,,0,,,,
65_10,,商工会議所前,,38.264834,140.872513,65_10,,0,,,,11
65_11,,商工会議所前,,38.264921,140.872457,65_11,,0,,,,12
65_50,,商工会議所前,,38.264419,140.872287,65_50,,0,,,,3
65_51,,商工会議所前,,38.264512,140.872235,65_51,,0,,,,2
65_52,,商工会議所前,,38.263484,140.872768,65_52,,0,,,,5
65_70,,商工会議所前,,38.264321,140.872371,65_70,,0,,,,4
65_888,,商工会議所前,,38.265048,140.872380,65_888,,0,,,,14
70_10,,県庁市役所前,,38.268153,140.870368,70_10,,0,,,,4
70_50,,県庁市役所前,,38.268322,140.869976,70_50,,0,,,,3
70_51,,県庁市役所前,,38.269275,140.869630,70_51,,0,,,,2
70_52,,県庁市役所前,,38.269428,140.869610,70_52,,0,,,,1
7001_10,,片平丁小学校前,,38.255849,140.868493,7001_10,,0,,,,
7001_50,,片平丁小学校前,,38.255954,140.868512,7001_50,,0,,,,
7003_10,,東北大正門前,,38.253829,140.871007,7003_10,,0,,,,
7003_50,,東北大正門前,,38.253799,140.871142,7003_50,,0,,,,
7005_10,,霊屋橋・瑞鳳殿入口,,38.252545,140.868876,7005_10,,0,,,,
7005_50,,霊屋橋・瑞鳳殿入口,,38.252266,140.869772,7005_50,,0,,,,
7007_10,,向山二丁目,,38.247764,140.867720,7007_10,,0,,,,
7007_50,,向山二丁目,,38.247654,140.867866,7007_50,,0,,,,
7009_10,,八木山入口長徳寺前,,38.245459,140.870791,7009_10,,0,,,,1
7009_50,,八木山入口長徳寺前,,38.246080,140.869985,7009_50,,0,,,,2
7009_51,,八木山入口長徳寺前,,38.245370,140.871727,7009_51,,0,,,,3
7011_10,,向山高校前,,38.245507,140.866071,7011_10,,0,,,,
7011_50,,向山高校前,,38.245364,140.866166,7011_50,,0,,,,
7013_10,,八木山緑町,,38.244902,140.863332,7013_10,,0,,,,
7013_50,,八木山緑町,,38.244601,140.862869,7013_50,,0,,,,
7015_10,,八木山神社前,,38.243988,140.861631,7015_10,,0,,,,
7015_50,,八木山神社前,,38.243720,140.860846,7015_50,,0,,,,
7017_10,,八木山松波町,,38.245569,140.857810,7017_10,,0,,,,
7017_50,,八木山松波町,,38.245607,140.857459,7017_50,,0,,,,
7019_10,,ＴＢＣ本社前,,38.246805,140.855102,7019_10,,0,,,,
7019_50,,ＴＢＣ本社前,,38.246464,140.855258,7019_50,,0,,,,
7021_10,,東北工大八木山キャンパス,,38.246583,140.851592,7021_10,,0,,,,
7021_50,,東北工大八木山キャンパス,,38.246337,140.851626,7021_50,,0,,,,
7023_10,,八木山ベニーランド前,,38.245650,140.849204,7023_10,,0,,,,
7023_50,,八木山ベニーランド前,,38.245425,140.848274,7023_50,,0,,,,
7024_10,,八木山動物公園東門前,,38.244559,140.846339,7024_10,,0,,,,
7024_50,,八木山動物公園東門前,,38.244416,140.846433,7024_50,,0,,,,
7028_10,,八木山本町二丁目北,,38.241204,140.842844,7028_10,,0,,,,
7028_50,,八木山本町二丁目北,,38.241351,140.843392,7028_50,,0,,,,
7029_10,,八木山小学校前,,38.240237,140.846231,7029_10,,0,,,,
7029_50,,八木山小学校前,,38.240258,140.846501,7029_50,,0,,,,
7031_10,,八木山本町二丁目,,38.237949,140.848981,7031_10,,0,,,,
7031_50,,八木山本町二丁目,,38.238050,140.849141,7031_50,,0,,,,
7051_0,,八木山動物公園駅,,38.243392,140.843405,7051_0,,0,,,,
7051_10,,八木山動物公園駅,,38.243296,140.842820,7051_10,,0,,,,1
7051_11,,八木山動物公園駅,,38.243362,140.842950,7051_11,,0,,,,3
7051_12,,八木山動物公園駅,,38.243206,140.843006,7051_12,,0,,,,5
7101_0,,長町四丁目長町営業所前,,38.228857,140.882343,7101_0,,0,,,,
7101_10,,長町四丁目長町営業所前,,38.229055,140.881165,7101_10,,0,,,,
7101_50,,長町四丁目長町営業所前,,38.229021,140.882414,7101_50,,0,,,,
7101_51,,長町四丁目長町営業所前,,38.228743,140.882397,7101_51,,0,,,,
7103_10,,仙台南年金事務所前,,38.225430,140.880406,7103_10,,0,,,,
7103_50,,仙台南年金事務所前,,38.225159,140.880339,7103_50,,0,,,,
7111_0,,長町南駅・太白区役所前,,38.223958,140.876241,7111_0,,0,,,,
7111_10,,長町南駅・太白区役所前,,38.224374,140.875809,7111_10,,0,,,,2
7111_11,,長町南駅・太白区役所前,,38.224593,140.875919,7111_11,,0,,,,7
7111_12,,長町南駅・太白区役所前,,38.224576,140.875784,7111_12,,0,,,,8
7111_50,,長町南駅・太白区役所前,,38.224384,140.875890,7111_50,,0,,,,1
7111_51,,長町南駅・太白区役所前,,38.224011,140.876438,7111_51,,0,,,,6
7113_10,,長町七丁目,,38.227248,140.877761,7113_10,,0,,,,
7113_50,,長町七丁目,,38.227311,140.877404,7113_50,,0,,,,
7115_10,,長町七丁目北,,38.228396,140.878078,7115_10,,0,,,,
7115_50,,長町七丁目北,,38.228324,140.878353,7115_50,,0,,,,
7121_50,,瀧澤寺前,,38.226889,140.867423,7121_50,,0,,,,
7121_51,,瀧澤寺前,,38.228781,140.869084,7121_51,,0,,,,
7122_10,,泉崎一丁目北,,38.223688,140.869724,7122_10,,0,,,,
7122_50,,泉崎一丁目北,,38.223467,140.869873,7122_50,,0,,,,
7123_10,,砂押町,,38.226052,140.866503,7123_10,,0,,,,1
7123_11,,砂押町,,38.224938,140.864912,7123_11,,0,,,,2
7123_51,,砂押町,,38.225303,140.863399,7123_51,,0,,,,4
7131_0,,東北工大長町キャンパス,,38.235801,140.873229,7131_0,,0,,,,
7131_10,,東北工大長町キャンパス,,38.235803,140.873197,7131_10,,0,,,,
7133_10,,東北工大長町キャンパス入口,,38.234283,140.870821,7133_10,,0,,,,
7133_50,,東北工大長町キャンパス入口,,38.234075,140.871455,7133_50,,0,,,,
7135_10,,鹿野本町,,38.232010,140.872549,7135_10,,0,,,,
7135_50,,鹿野本町,,38.230922,140.872070,7135_50,,0,,,,
7201_10,,八木山本町一丁目,,38.243810,140.847976,7201_10,,0,,,,
7201_50,,八木山本町一丁目,,38.243843,140.848065,7201_50,,0,,,,
7203_10,,松が丘,,38.242934,140.851097,7203_10,,0,,,,
7203_50,,松が丘,,38.243075,140.850711,7203_50,,0,,,,
7204_10,,松が丘中,,38.240733,140.850717,7204_10,,0,,,,
7204_50,,松が丘中,,38.241311,140.850965,7204_50,,0,,,,
7205_10,,ＮＴＴ八木山交換所前,,38.239931,140.851619,7205_10,,0,,,,
7205_50,,ＮＴＴ八木山交換所前,,38.240038,140.851341,7205_50,,0,,,,
7206_10,,青山一丁目,,38.239102,140.853909,7206_10,,0,,,,
7206_50,,青山一丁目,,38.239037,140.854293,7206_50,,0,,,,
7207_10,,青山二丁目,,38.238035,140.856445,7207_10,,0,,,,
7207_50,,青山二丁目,,38.238215,140.856150,7207_50,,0,,,,
7211_0,,恵和町,,38.236493,140.853729,7211_0,,0,,,,
7211_10,,恵和町,,38.236470,140.853705,7211_10,,0,,,,
7213_10,,青葉苑団地前,,38.236396,140.859004,7213_10,,0,,,,
7213_50,,青葉苑団地前,,38.236659,140.858711,7213_50,,0,,,,
7215_10,,緑ケ丘四丁目,,38.234678,140.861406,7215_10,,0,,,,
7215_50,,緑ケ丘四丁目,,38.234346,140.861964,7215_50,,0,,,,
7217_0,,緑ケ丘三丁目,,38.232693,140.863978,7217_0,,0,,,,
7217_10,,緑ケ丘三丁目,,38.232666,140.863991,7217_10,,0,,,,
7217_50,,緑ケ丘三丁目,,38.232698,140.864017,7217_50,,0,,,,
7219_10,,緑ケ丘郵便局前,,38.231978,140.866040,7219_10,,0,,,,
7219_50,,緑ケ丘郵便局前,,38.231969,140.865972,7219_50,,0,,,,
7220_10,,緑ケ丘一丁目北,,38.231906,140.867896,7220_10,,0,,,,
7220_50,,緑ケ丘一丁目北,,38.231839,140.867756,7220_50,,0,,,,
7221_10,,緑ケ丘一丁目,,38.230652,140.867809,7221_10,,0,,,,
7223_10,,緑ケ丘入口,,38.228893,140.869630,7223_10,,0,,,,
7251_10,,八木山本町二丁目西,,38.240693,140.839858,7251_10,,0,,,,
7251_50,,八木山本町二丁目西,,38.240648,140.840124,7251_50,,0,,,,
7253_0,,日赤病院前,,38.237292,140.839781,7253_0,,0,,,,
7253_10,,日赤病院前,,38.238215,140.838716,7253_10,,0,,,,1
7253_11,,日赤病院前,,38.237308,140.839743,7253_11,,0,,,,2
7253_50,,日赤病院前,,38.237291,140.838823,7253_50,,0,,,,3
7255_10,,八木山南団地入口,,38.235996,140.837863,7255_10,,0,,,,
7255_50,,八木山南団地入口,,38.235612,140.837762,7255_50,,0,,,,
7257_10,,八木山南三丁目,,38.235757,140.834075,7257_10,,0,,,,
7257_50,,八木山南三丁目,,38.235681,140.834116,7257_50,,0,,,,
7259_10,,八木山南五丁目,,38.233669,140.834109,7259_10,,0,,,,
7259_50,,八木山南五丁目,,38.233979,140.834238,7259_50,,0,,,,
7261_10,,八木山南六丁目,,38.232046,140.835924,7261_10,,0,,,,
7261_50,,八木山南六丁目,,38.232234,140.836263,7261_50,,0,,,,
7265_0,,西高校入口,,38.226889,140.839775,7265_0,,0,,,,
7265_10,,西高校入口,,38.226536,140.839613,7265_10,,0,,,,
7265_50,,西高校入口,,38.226854,140.839796,7265_50,,0,,,,
7267_10,,鉤取寺前,,38.223206,140.842169,7267_10,,0,,,,
7267_50,,鉤取寺前,,38.223632,140.842110,7267_50,,0,,,,
7269_10,,新道西多賀,,38.220833,140.856447,7269_10,,0,,,,
7269_50,,新道西多賀,,38.221493,140.858925,7269_50,,0,,,,
7301_10,,愛宕神社前,,38.245111,140.878851,7301_10,,0,,,,
7301_50,,愛宕神社前,,38.245032,140.879142,7301_50,,0,,,,
7303_10,,越路,,38.242866,140.880821,7303_10,,0,,,,
7303_50,,越路,,38.243241,140.880708,7303_50,,0,,,,
7305_10,,根岸町,,38.241377,140.883256,7305_10,,0,,,,
7305_50,,根岸町,,38.241554,140.883557,7305_50,,0,,,,
7307_10,,大年寺前,,38.236456,140.879652,7307_10,,0,,,,
7307_50,,大年寺前,,38.236361,140.879969,7307_50,,0,,,,
7309_10,,三桜高校前,,38.234402,140.878358,7309_10,,0,,,,
7309_50,,三桜高校前,,38.234428,140.878795,7309_50,,0,,,,
7311_10,,鹿野公園前,,38.232063,140.876924,7311_10,,0,,,,
7311_50,,鹿野公園前,,38.231936,140.877216,7311_50,,0,,,,
7321_10,,長町八丁目,,38.228918,140.876302,7321_10,,0,,,,
7321_50,,長町八丁目,,38.229387,140.876236,7321_50,,0,,,,
7351_10,,向山保育所前,,38.243490,140.877213,7351_10,,0,,,,
7351_50,,向山保育所前,,38.243446,140.876925,7351_50,,0,,,,
7353_10,,向山四丁目,,38.243765,140.873230,7353_10,,0,,,,
7353_11,,向山四丁目,,38.243181,140.873510,7353_11,,0,,,,
7353_50,,向山四丁目,,38.243512,140.874067,7353_50,,0,,,,
7355_10,,愛宕中学校前,,38.241158,140.871656,7355_10,,0,,,,
7355_50,,愛宕中学校前,,38.240790,140.871446,7355_50,,0,,,,
7357_10,,萩ケ丘,,38.237809,140.870126,7357_10,,0,,,,
7357_50,,萩ケ丘,,38.237878,140.870059,7357_50,,0,,,,
7359_10,,茂ケ崎,,38.237669,140.872892,7359_10,,0,,,,
7359_50,,茂ケ崎,,38.237718,140.872897,7359_50,,0,,,,
7361_0,,野草園前,,38.238584,140.874798,7361_0,,0,,,,
7361_10,,野草園前,,38.238466,140.874943,7361_10,,0,,,,
7405_10,,青葉山駅,,38.255084,140.835237,7405_10,,0,,,,
7407_10,,工学部西,,38.255526,140.838201,7407_10,,0,,,,
7407_50,,工学部西,,38.255402,140.838340,7407_50,,0,,,,
7409_10,,工学部中央,,38.255030,140.840957,7409_10,,0,,,,
7409_50,,工学部中央,,38.254973,140.840756,7409_50,,0,,,,
7411_10,,工学部東,,38.253827,140.845147,7411_10,,0,,,,
7411_50,,工学部東,,38.253501,140.845152,7411_50,,0,,,,
7413_10,,仙台城跡南,,38.250963,140.854540,7413_10,,0,,,,
7413_50,,仙台城跡南,,38.251076,140.854328,7413_50,,0,,,,
7433_10,,宮教大前,,38.257752,140.830939,7433_10,,0,,,,
7435_10,,ナノテラス入口,,38.253304,140.825901,7435_10,,0,,,,
7437_10,,青葉台下,,38.250409,140.825693,7437_10,,0,,,,
7439_0,,青葉台,,38.248004,140.824639,7439_0,,0,,,,
7439_10,,青葉台,,38.247966,140.824642,7439_10,,0,,,,
7501_0,,長町駅東口,,38.226495,140.885880,7501_0,,0,,,,
7501_10,,長町駅東口,,38.227224,140.885858,7501_10,,0,,,,4
7501_11,,長町駅東口,,38.227079,140.885817,7501_11,,0,,,,5
7503_10,,郡山三丁目,,38.225630,140.894575,7503_10,,0,,,,
7503_50,,郡山三丁目,,38.225977,140.893128,7503_50,,0,,,,
7601_10,,若葉町,,38.235962,140.851351,7601_10,,0,,,,
7601_50,,若葉町,,38.236284,140.851267,7601_50,,0,,,,
7603_10,,西の平二丁目東,,38.233971,140.852629,7603_10,,0,,,,
7603_50,,西の平二丁目東,,38.233066,140.853344,7603_50,,0,,,,
7605_10,,芦口小学校前,,38.230251,140.855938,7605_10,,0,,,,
7605_50,,芦口小学校前,,38.230670,140.855677,7605_50,,0,,,,
7607_10,,土手内一丁目,,38.228151,140.858112,7607_10,,0,,,,
7607_50,,土手内一丁目,,38.227326,140.858851,7607_50,,0,,,,
7609_10,,土手内一丁目南,,38.225991,140.861534,7609_10,,0,,,,
7609_50,,土手内一丁目南,,38.226254,140.861248,7609_50,,0,,,,
80_10,,定禅寺通市役所前,,38.266050,140.869833,80_10,,0,,,,
80_12,,定禅寺通市役所前,,38.265911,140.869259,80_12,,0,,,,
80_13,,定禅寺通市役所前,,38.265862,140.868999,80_13,,0,,,,
80_15,,定禅寺通市役所前,,38.266030,140.869701,80_15,,0,,,,
80_50,,定禅寺通市役所前,,38.265674,140.869826,80_50,,0,,,,
8001_11,,国見二丁目,,38.274045,140.844765,8001_11,,0,,,,
8001_51,,国見二丁目,,38.274431,140.844945,8001_51,,0,,,,
8003_11,,国見小学校前,,38.276400,140.844526,8003_11,,0,,,,
8003_51,,国見小学校前,,38.275793,140.845290,8003_51,,0,,,,
8005_11,,国見四丁目,,38.274905,140.842537,8005_11,,0,,,,
8005_51,,国見四丁目,,38.274876,140.842618,8005_51,,0,,,,
8007_11,,国見五丁目,,38.274881,140.839877,8007_11,,0,,,,
8007_51,,国見五丁目,,38.274806,140.839818,8007_51,,0,,,,
8009_11,,国見五丁目西,,38.275397,140.838688,8009_11,,0,,,,
8009_51,,国見五丁目西,,38.275691,140.838142,8009_51,,0,,,,
8011_11,,雷神堂,,38.276715,140.836412,8011_11,,0,,,,
8011_51,,雷神堂,,38.276800,140.836208,8011_51,,0,,,,
8013_11,,国見駅入口,,38.278436,140.834068,8013_11,,0,,,,
8013_51,,国見駅入口,,38.278249,140.834092,8013_51,,0,,,,
8015_12,,仙台高校・福祉大ウェルコム２１前,,38.282938,140.833947,8015_12,,0,,,,
8015_52,,仙台高校・福祉大ウェルコム２１前,,38.282840,140.833795,8015_52,,0,,,,
8016_10,,仙台高校南,,38.281213,140.832703,8016_10,,0,,,,
8016_50,,仙台高校南,,38.280398,140.832903,8016_50,,0,,,,
8017_11,,弁天前,,38.283467,140.829781,8017_11,,0,,,,
8017_51,,弁天前,,38.283401,140.829701,8017_51,,0,,,,
8019_11,,無線中継所仏舎利塔前,,38.284244,140.825815,8019_11,,0,,,,
8019_51,,無線中継所仏舎利塔前,,38.283861,140.826089,8019_51,,0,,,,
8020_11,,国見ケ丘西,,38.287491,140.824492,8020_11,,0,,,,
8020_51,,国見ケ丘西,,38.287390,140.824424,8020_51,,0,,,,
8021_11,,吉成中学校前,,38.289746,140.823288,8021_11,,0,,,,
8021_51,,吉成中学校前,,38.289499,140.823307,8021_51,,0,,,,
8023_11,,吉成一丁目,,38.290557,140.821589,8023_11,,0,,,,
8023_50,,吉成一丁目,,38.290378,140.821685,8023_50,,0,,,,
8023_51,,吉成一丁目,,38.291073,140.820193,8023_51,,0,,,,
8023_52,,吉成一丁目,,38.291219,140.820886,8023_52,,0,,,,
8025_11,,吉成二丁目,,38.291710,140.818920,8025_11,,0,,,,
8027_11,,南吉成小学校前,,38.290695,140.815111,8027_11,,0,,,,
8029_10,,吉成一丁目北,,38.292435,140.822001,8029_10,,0,,,,
8029_50,,吉成一丁目北,,38.293535,140.820787,8029_50,,0,,,,
8029_51,,吉成一丁目北,,38.293224,140.822428,8029_51,,0,,,,
8031_10,,南吉成一丁目,,38.288919,140.819897,8031_10,,0,,,,
8033_10,,南吉成二丁目,,38.286522,140.818667,8033_10,,0,,,,
8033_50,,南吉成二丁目,,38.286265,140.818734,8033_50,,0,,,,
8035_10,,南吉成三丁目,,38.285362,140.817213,8035_10,,0,,,,
8037_10,,南吉成四丁目,,38.286438,140.814061,8037_10,,0,,,,
8039_11,,南吉成五丁目,,38.288882,140.813793,8039_11,,0,,,,
8041_10,,吉成台二丁目,,38.294183,140.820517,8041_10,,0,,,,
8041_50,,吉成台二丁目,,38.294762,140.820027,8041_50,,0,,,,
8043_10,,中山吉成南,,38.296011,140.818829,8043_10,,0,,,,
8043_50,,中山吉成南,,38.296005,140.818591,8043_50,,0,,,,
8045_10,,中山台一丁目,,38.297855,140.815086,8045_10,,0,,,,
8045_50,,中山台一丁目,,38.297967,140.814697,8045_50,,0,,,,
8047_10,,中山台二丁目,,38.300210,140.812970,8047_10,,0,,,,
8047_50,,中山台二丁目,,38.300252,140.812851,8047_50,,0,,,,
8049_10,,中山台西,,38.303485,140.814883,8049_10,,0,,,,
8049_50,,中山台西,,38.303586,140.814668,8049_50,,0,,,,
8051_11,,ＪＲ東北福祉大前駅,,38.279975,140.842693,8051_11,,0,,,,
8051_51,,ＪＲ東北福祉大前駅,,38.279883,140.842511,8051_51,,0,,,,
8053_11,,貝ケ森六丁目,,38.283413,140.843698,8053_11,,0,,,,
8053_51,,貝ケ森六丁目,,38.283168,140.843495,8053_51,,0,,,,
8055_11,,貝ケ森五丁目,,38.286122,140.842127,8055_11,,0,,,,
8055_51,,貝ケ森五丁目,,38.286021,140.842054,8055_51,,0,,,,
8057_11,,貝ケ森三丁目,,38.284410,140.838119,8057_11,,0,,,,
8057_51,,貝ケ森三丁目,,38.284691,140.838567,8057_51,,0,,,,
8059_11,,貝ケ森四丁目,,38.281906,140.837515,8059_11,,0,,,,
8059_51,,貝ケ森四丁目,,38.281821,140.837630,8059_51,,0,,,,
8061_0,,貝ケ森一丁目,,38.280910,140.838853,8061_0,,0,,,,
8061_11,,貝ケ森一丁目,,38.280904,140.838850,8061_11,,0,,,,
8061_51,,貝ケ森一丁目,,38.280705,140.839366,8061_51,,0,,,,
8063_11,,国見ケ丘五丁目,,38.284069,140.832146,8063_11,,0,,,,
8063_51,,国見ケ丘五丁目,,38.283859,140.831982,8063_51,,0,,,,
8065_0,,青陵中等教育学校前,,38.288491,140.832690,8065_0,,0,,,,
8065_11,,青陵中等教育学校前,,38.288388,140.832486,8065_11,,0,,,,
8065_51,,青陵中等教育学校前,,38.288579,140.832659,8065_51,,0,,,,
8071_0,,国見ケ丘三丁目福祉大野球場前,,38.290751,140.830924,8071_0,,0,,,,
8071_11,,国見ケ丘三丁目福祉大野球場前,,38.291021,140.830616,8071_11,,0,,,,
8071_51,,国見ケ丘三丁目福祉大野球場前,,38.290751,140.830918,8071_51,,0,,,,
8073_0,,国見ケ丘一丁目,,38.294561,140.826893,8073_0,,0,,,,
8073_10,,国見ケ丘一丁目,,38.294171,140.827367,8073_10,,0,,,,
8073_50,,国見ケ丘一丁目,,38.295024,140.826332,8073_50,,0,,,,
8075_10,,国見ケ丘一丁目北,,38.296429,140.827353,8075_10,,0,,,,
8075_50,,国見ケ丘一丁目北,,38.296586,140.827239,8075_50,,0,,,,
8099_10,,東北文化学園大前,,38.277433,140.834581,8099_10,,0,,,,
8099_50,,東北文化学園大前,,38.277838,140.834478,8099_50,,0,,,,
8101_11,,西雷神,,38.275289,140.833658,8101_11,,0,,,,
8101_51,,西雷神,,38.275284,140.832976,8101_51,,0,,,,
8103_11,,国見東山,,38.276689,140.829424,8103_11,,0,,,,
8103_51,,国見東山,,38.276639,140.829295,8103_51,,0,,,,
8105_11,,墓園北口,,38.277562,140.824003,8105_11,,0,,,,
8105_51,,墓園北口,,38.277467,140.824384,8105_51,,0,,,,
8107_11,,市民墓地入口,,38.274611,140.821653,8107_11,,0,,,,
8109_11,,市民墓地中央,,38.273627,140.819395,8109_11,,0,,,,
8111_11,,墓園正門前,,38.269468,140.816350,8111_11,,0,,,,
8111_12,,墓園正門前,,38.269308,140.816136,8111_12,,0,,,,
8113_11,,市民墓地Ｐ区画前,,38.273375,140.812707,8113_11,,0,,,,
8115_11,,市民墓地Ｆ区画前,,38.274950,140.815577,8115_11,,0,,,,
8117_11,,市民墓地Ｋ区画前,,38.273232,140.815592,8117_11,,0,,,,
8119_11,,東墓園,,38.269719,140.819825,8119_11,,0,,,,
8121_11,,寺院墓地中央,,38.271291,140.822185,8121_11,,0,,,,
8123_11,,給水塔前,,38.273934,140.822058,8123_11,,0,,,,
8125_11,,市民墓地Ｘ区画前,,38.277732,140.817597,8125_11,,0,,,,
8125_51,,市民墓地Ｘ区画前,,38.277713,140.817714,8125_51,,0,,,,
8127_11,,第２給水塔入口,,38.276434,140.817370,8127_11,,0,,,,
8127_51,,第２給水塔入口,,38.276370,140.817461,8127_51,,0,,,,
8129_11,,市民墓地３７区画前,,38.272348,140.812796,8129_11,,0,,,,
8131_0,,市民墓地Ｉ区画前,,38.274813,140.813992,8131_0,,0,,,,
8131_11,,市民墓地Ｉ区画前,,38.274864,140.813968,8131_11,,0,,,,
8133_11,,市民墓地５２区画前,,38.278652,140.819310,8133_11,,0,,,,
8133_51,,市民墓地５２区画前,,38.278520,140.819376,8133_51,,0,,,,
8201_11,,八幡五丁目,,38.271309,140.840167,8201_11,,0,,,,
8201_51,,八幡五丁目,,38.271069,140.840761,8201_51,,0,,,,
8203_11,,八幡六丁目,,38.270757,140.836619,8203_11,,0,,,,
8203_51,,八幡六丁目,,38.270267,140.836104,8203_51,,0,,,,
8205_11,,文殊堂前,,38.268188,140.835299,8205_11,,0,,,,
8205_51,,文殊堂前,,38.266556,140.834485,8205_51,,0,,,,
8207_11,,八幡七丁目,,38.266822,140.829390,8207_11,,0,,,,
8207_51,,八幡七丁目,,38.267212,140.828060,8207_51,,0,,,,
8208_10,,葛岡下,,38.266019,140.817060,8208_10,,0,,,,
8208_50,,葛岡下,,38.265933,140.817084,8208_50,,0,,,,
8209_11,,郷六,,38.265992,140.816241,8209_11,,0,,,,
8209_51,,郷六,,38.265194,140.817124,8209_51,,0,,,,
8210_10,,葛岡駅前,,38.267637,140.818184,8210_10,,0,,,,
8210_11,,葛岡駅前,,38.267665,140.818300,8210_11,,0,,,,
8211_11,,折立,,38.266747,140.809000,8211_11,,0,,,,
8211_112,,折立,,38.265031,140.810571,8211_112,,0,,,,
8211_152,,折立,,38.265515,140.810754,8211_152,,0,,,,
8211_51,,折立,,38.266585,140.809752,8211_51,,0,,,,
8213_11,,西花苑団地入口,,38.268208,140.803777,8213_11,,0,,,,
8213_51,,西花苑団地入口,,38.268592,140.802722,8213_51,,0,,,,
8213_52,,西花苑団地入口,,38.268239,140.803001,8213_52,,0,,,,
8215_11,,落合橋,,38.271004,140.797520,8215_11,,0,,,,
8215_51,,落合橋,,38.271118,140.796884,8215_51,,0,,,,
8217_11,,落合,,38.272051,140.793222,8217_11,,0,,,,
8217_12,,落合,,38.272482,140.793945,8217_12,,0,,,,
8217_51,,落合,,38.271994,140.793093,8217_51,,0,,,,
8217_52,,落合,,38.272414,140.793756,8217_52,,0,,,,
8219_11,,宮城広瀬高校・こども病院前,,38.273067,140.785640,8219_11,,0,,,,
8219_51,,宮城広瀬高校・こども病院前,,38.272956,140.786089,8219_51,,0,,,,
8220_11,,愛子東一丁目,,38.273387,140.779671,8220_11,,0,,,,
8220_51,,愛子東一丁目,,38.273293,140.780738,8220_51,,0,,,,
8221_11,,広瀬小学校前,,38.273133,140.776347,8221_11,,0,,,,
8221_51,,広瀬小学校前,,38.273028,140.775907,8221_51,,0,,,,
8223_11,,愛子東二丁目,,38.272889,140.774140,8223_11,,0,,,,
8223_51,,愛子東二丁目,,38.272748,140.773743,8223_51,,0,,,,
8224_11,,愛子東六丁目,,38.271949,140.769847,8224_11,,0,,,,
8224_51,,愛子東六丁目,,38.272193,140.771227,8224_51,,0,,,,
8225_11,,愛子幼稚園前,,38.271594,140.767325,8225_11,,0,,,,
8225_51,,愛子幼稚園前,,38.271420,140.766472,8225_51,,0,,,,
8226_0,,愛子駅,,38.272287,140.761337,8226_0,,0,,,,
8226_12,,愛子駅,,38.272506,140.761477,8226_12,,0,,,,
8226_13,,愛子駅,,38.272518,140.761793,8226_13,,0,,,,
8227_0,,愛子駅前,,38.270929,140.763008,8227_0,,0,,,,
8227_11,,愛子駅前,,38.271003,140.762635,8227_11,,0,,,,
8227_51,,愛子駅前,,38.271135,140.761061,8227_51,,0,,,,
8229_11,,愛子中央六丁目,,38.271934,140.756438,8229_11,,0,,,,
8229_51,,愛子中央六丁目,,38.271848,140.757054,8229_51,,0,,,,
8231_11,,仙台高専広瀬キャンパス入口,,38.273000,140.748598,8231_11,,0,,,,
8231_51,,仙台高専広瀬キャンパス入口,,38.272829,140.747908,8231_51,,0,,,,
8233_11,,二軒在家,,38.273068,140.743559,8233_11,,0,,,,
8233_51,,二軒在家,,38.273015,140.743969,8233_51,,0,,,,
8235_11,,仙台環境開発スポーツパーク宮城広瀬前,,38.272682,140.737248,8235_11,,0,,,,
8235_51,,仙台環境開発スポーツパーク宮城広瀬前,,38.272657,140.737838,8235_51,,0,,,,
8237_11,,松原,,38.271356,140.728178,8237_11,,0,,,,
8237_51,,松原,,38.271266,140.728378,8237_51,,0,,,,
8239_11,,遠野原,,38.271680,140.724991,8239_11,,0,,,,
8239_51,,遠野原,,38.271662,140.724765,8239_51,,0,,,,
8241_11,,倉内,,38.274244,140.719249,8241_11,,0,,,,
8241_51,,倉内,,38.273679,140.719820,8241_51,,0,,,,
8243_0,,市営バス白沢車庫前,,38.275254,140.714099,8243_0,,0,,,,
8243_11,,市営バス白沢車庫前,,38.275275,140.714109,8243_11,,0,,,,
8243_51,,市営バス白沢車庫前,,38.275275,140.714095,8243_51,,0,,,,
8245_11,,大針,,38.278056,140.708117,8245_11,,0,,,,
8245_51,,大針,,38.277921,140.708246,8245_51,,0,,,,
8247_11,,白沢駅前,,38.278966,140.703563,8247_11,,0,,,,
8247_51,,白沢駅前,,38.279057,140.702841,8247_51,,0,,,,
8249_11,,上愛子小学校前,,38.284742,140.691857,8249_11,,0,,,,
8249_51,,上愛子小学校前,,38.284623,140.691776,8249_51,,0,,,,
8251_11,,熊ケ根橋,,38.293390,140.686391,8251_11,,0,,,,
8251_12,,熊ケ根橋,,38.292828,140.687412,8251_12,,0,,,,
8251_51,,熊ケ根橋,,38.293486,140.686176,8251_51,,0,,,,
8251_52,,熊ケ根橋,,38.292954,140.687234,8251_52,,0,,,,
8255_11,,熊ケ根駅前,,38.298426,140.680716,8255_11,,0,,,,
8255_51,,熊ケ根駅前,,38.298243,140.680722,8255_51,,0,,,,
8257_0,,熊ケ根関,,38.302026,140.673953,8257_0,,0,,,,
8257_11,,熊ケ根関,,38.302729,140.671268,8257_11,,0,,,,
8257_51,,熊ケ根関,,38.302688,140.670939,8257_51,,0,,,,
8259_11,,鳳鳴四十八滝入口,,38.305906,140.662538,8259_11,,0,,,,
8259_51,,鳳鳴四十八滝入口,,38.305947,140.662266,8259_51,,0,,,,
8261_11,,作並川崎入口,,38.309788,140.656201,8261_11,,0,,,,
8261_51,,作並川崎入口,,38.309638,140.656686,8261_51,,0,,,,
8263_11,,作並川崎,,38.310505,140.652839,8263_11,,0,,,,
8263_51,,作並川崎,,38.310546,140.652562,8263_51,,0,,,,
8265_11,,ニッカ橋,,38.313589,140.648487,8265_11,,0,,,,
8265_51,,ニッカ橋,,38.313488,140.648625,8265_51,,0,,,,
8267_11,,作並駅前,,38.317062,140.633485,8267_11,,0,,,,
8267_51,,作並駅前,,38.316938,140.633516,8267_51,,0,,,,
8271_11,,作並宿,,38.318649,140.625525,8271_11,,0,,,,
8271_51,,作並宿,,38.318418,140.625597,8271_51,,0,,,,
8273_11,,作並新坂東,,38.321827,140.620407,8273_11,,0,,,,
8273_51,,作並新坂東,,38.321572,140.620278,8273_51,,0,,,,
8275_11,,作並新坂,,38.324731,140.619048,8275_11,,0,,,,
8277_11,,作並温泉入口,,38.328662,140.616362,8277_11,,0,,,,
8277_51,,作並温泉入口,,38.328439,140.616341,8277_51,,0,,,,
8279_11,,作並温泉元木,,38.329832,140.615893,8279_11,,0,,,,
8281_11,,作並温泉仲町,,38.330930,140.615342,8281_11,,0,,,,
8283_0,,作並温泉元湯,,38.334099,140.612913,8283_0,,0,,,,
8283_11,,作並温泉元湯,,38.334114,140.612949,8283_11,,0,,,,
8301_11,,折立団地児童公園前,,38.263942,140.804481,8301_11,,0,,,,
8301_51,,折立団地児童公園前,,38.264010,140.804393,8301_51,,0,,,,
8303_11,,折立団地中央通,,38.261739,140.804460,8303_11,,0,,,,
8303_51,,折立団地中央通,,38.261727,140.804367,8303_51,,0,,,,
8305_11,,折立小学校前,,38.261110,140.806177,8305_11,,0,,,,
8305_51,,折立小学校前,,38.261078,140.806091,8305_51,,0,,,,
8307_11,,西国道維持出張所前,,38.261562,140.810933,8307_11,,0,,,,
8307_12,,西国道維持出張所前,,38.259292,140.809949,8307_12,,0,,,,
8307_51,,西国道維持出張所前,,38.262027,140.811011,8307_51,,0,,,,
8307_52,,西国道維持出張所前,,38.259354,140.810207,8307_52,,0,,,,
8309_11,,西花苑スポーツ公園前,,38.266491,140.800632,8309_11,,0,,,,
8309_51,,西花苑スポーツ公園前,,38.266092,140.800612,8309_51,,0,,,,
8310_11,,西花苑一丁目,,38.264844,140.800358,8310_11,,0,,,,
8311_0,,西花苑二丁目,,38.263574,140.800376,8311_0,,0,,,,
8311_11,,西花苑二丁目,,38.263834,140.799971,8311_11,,0,,,,
8313_11,,大梅寺前,,38.257129,140.809898,8313_11,,0,,,,
8313_51,,大梅寺前,,38.257759,140.809968,8313_51,,0,,,,
8315_11,,広瀬病院前,,38.254649,140.809577,8315_11,,0,,,,
8315_51,,広瀬病院前,,38.254645,140.809725,8315_51,,0,,,,
8317_11,,綱木,,38.251909,140.805654,8317_11,,0,,,,
8317_51,,綱木,,38.252274,140.806474,8317_51,,0,,,,
8319_11,,松倉・盲導犬訓練センター前,,38.247195,140.798952,8319_11,,0,,,,
8319_51,,松倉・盲導犬訓練センター前,,38.247383,140.799604,8319_51,,0,,,,
8321_11,,梨野,,38.239779,140.791240,8321_11,,0,,,,
8321_51,,梨野,,38.239814,140.792389,8321_51,,0,,,,
8323_11,,茂庭台四丁目,,38.241042,140.787138,8323_11,,0,,,,
8323_51,,茂庭台四丁目,,38.240575,140.787497,8323_51,,0,,,,
8327_11,,茂庭台五丁目,,38.240113,140.783364,8327_11,,0,,,,
8327_51,,茂庭台五丁目,,38.239519,140.782979,8327_51,,0,,,,
8331_11,,茂庭台中央,,38.235207,140.781286,8331_11,,0,,,,
8331_51,,茂庭台中央,,38.234580,140.781457,8331_51,,0,,,,
8333_0,,茂庭台一丁目南,,38.230351,140.783760,8333_0,,0,,,,
8335_0,,茂庭台一丁目,,38.231164,140.782649,8335_0,,0,,,,
8335_11,,茂庭台一丁目,,38.231256,140.782188,8335_11,,0,,,,
8335_51,,茂庭台一丁目,,38.231166,140.782652,8335_51,,0,,,,
8337_11,,涌沢,,38.231721,140.788734,8337_11,,0,,,,
8337_51,,涌沢,,38.231599,140.788832,8337_51,,0,,,,
8339_11,,茂庭本郷,,38.228493,140.790115,8339_11,,0,,,,
8339_51,,茂庭本郷,,38.228889,140.790070,8339_51,,0,,,,
8341_0,,生出市民センター前,,38.221572,140.791107,8341_0,,0,,,,
8341_11,,生出市民センター前,,38.221433,140.791095,8341_11,,0,,,,
8343_11,,茂庭,,38.219403,140.787015,8343_11,,0,,,,
8345_11,,生出橋,,38.217291,140.786075,8345_11,,0,,,,
8346_10,,生出郵便局前,,38.222136,140.786959,8346_10,,0,,,,
8351_11,,落合駅前,,38.272894,140.788788,8351_11,,0,,,,
8351_51,,落合駅前,,38.272654,140.789731,8351_51,,0,,,,
8353_0,,陸前落合駅,,38.273205,140.790562,8353_0,,0,,,,
8353_10,,陸前落合駅,,38.273209,140.790562,8353_10,,0,,,,
8401_10,,落合駅入口,,38.274188,140.793600,8401_10,,0,,,,
8401_50,,落合駅入口,,38.274783,140.793326,8401_50,,0,,,,
8403_10,,大竹新田,,38.276854,140.791858,8403_10,,0,,,,
8403_50,,大竹新田,,38.276614,140.792032,8403_50,,0,,,,
8404_50,,向田入口,,38.278329,140.790287,8404_50,,0,,,,
8405_10,,大竹南,,38.279580,140.789310,8405_10,,0,,,,
8405_50,,大竹南,,38.280770,140.788984,8405_50,,0,,,,
8407_10,,大竹,,38.283689,140.788436,8407_10,,0,,,,
8407_50,,大竹,,38.283018,140.788615,8407_50,,0,,,,
8409_10,,的場,,38.285546,140.787078,8409_10,,0,,,,
8409_50,,的場,,38.286091,140.786492,8409_50,,0,,,,
8411_10,,芋沢綱木,,38.288967,140.784282,8411_10,,0,,,,
8411_50,,芋沢綱木,,38.288752,140.784366,8411_50,,0,,,,
8412_10,,長泉寺前,,38.291174,140.781361,8412_10,,0,,,,
8412_50,,長泉寺前,,38.291033,140.781272,8412_50,,0,,,,
8413_10,,下辺田,,38.293896,140.778546,8413_10,,0,,,,
8413_50,,下辺田,,38.293795,140.778446,8413_50,,0,,,,
8415_10,,芋沢唄坂,,38.295784,140.776398,8415_10,,0,,,,
8415_50,,芋沢唄坂,,38.295622,140.776421,8415_50,,0,,,,
8417_10,,芋沢明神,,38.300934,140.771684,8417_10,,0,,,,
8417_50,,芋沢明神,,38.300463,140.771982,8417_50,,0,,,,
8418_10,,芋沢平,,38.302999,140.770278,8418_10,,0,,,,
8419_10,,大沢市民センター前,,38.303927,140.771414,8419_10,,0,,,,
8419_50,,大沢市民センター前,,38.303991,140.771422,8419_50,,0,,,,
8421_10,,みやぎ台一丁目,,38.306013,140.772828,8421_10,,0,,,,
8421_50,,みやぎ台一丁目,,38.306046,140.772788,8421_50,,0,,,,
8423_10,,みやぎ台二丁目東,,38.307338,140.773662,8423_10,,0,,,,
8423_50,,みやぎ台二丁目東,,38.307226,140.773685,8423_50,,0,,,,
8425_10,,みやぎ台二丁目,,38.309450,140.771478,8425_10,,0,,,,
8425_50,,みやぎ台二丁目,,38.309118,140.771704,8425_50,,0,,,,
8427_10,,みやぎ台三丁目,,38.311073,140.769780,8427_10,,0,,,,
8427_50,,みやぎ台三丁目,,38.311131,140.769615,8427_50,,0,,,,
8429_10,,みやぎ台四丁目,,38.312447,140.766197,8429_10,,0,,,,
8429_50,,みやぎ台四丁目,,38.312446,140.765949,8429_50,,0,,,,
8431_10,,みやぎ台五丁目,,38.312741,140.762753,8431_10,,0,,,,
8431_50,,みやぎ台五丁目,,38.312770,140.762873,8431_50,,0,,,,
8433_10,,横手,,38.309792,140.760861,8433_10,,0,,,,
8433_50,,横手,,38.309451,140.761417,8433_50,,0,,,,
8435_10,,上新田,,38.311116,140.755981,8435_10,,0,,,,
8437_0,,白坂,,38.312807,140.752173,8437_0,,0,,,,
8437_10,,白坂,,38.312808,140.752180,8437_10,,0,,,,
8439_10,,大國神社入口,,38.316203,140.749619,8439_10,,0,,,,
8441_0,,大國神社前,,38.317185,140.749088,8441_0,,0,,,,
8441_10,,大國神社前,,38.317181,140.749085,8441_10,,0,,,,
8461_10,,大竹原,,38.279845,140.780558,8461_10,,0,,,,
8461_50,,大竹原,,38.279750,140.780603,8461_50,,0,,,,
8463_10,,大竹原上,,38.280717,140.774848,8463_10,,0,,,,
8463_50,,大竹原上,,38.280604,140.774843,8463_50,,0,,,,
8465_10,,二本松,,38.283242,140.767611,8465_10,,0,,,,
8465_50,,二本松,,38.283213,140.767528,8465_50,,0,,,,
8467_10,,佛國寺前,,38.285875,140.756324,8467_10,,0,,,,
8467_50,,佛國寺前,,38.285816,140.756284,8467_50,,0,,,,
8469_10,,赤坂下,,38.286960,140.751039,8469_10,,0,,,,
8469_50,,赤坂下,,38.286927,140.751010,8469_50,,0,,,,
8471_10,,赤坂,,38.288672,140.747809,8471_10,,0,,,,
8471_50,,赤坂,,38.288291,140.748236,8471_50,,0,,,,
8473_10,,青野木下,,38.290647,140.738493,8473_10,,0,,,,
8475_10,,青野木中,,38.290712,140.732529,8475_10,,0,,,,
8477_10,,青野木馬場前,,38.293817,140.725887,8477_10,,0,,,,
8479_10,,青野木,,38.295889,140.721927,8479_10,,0,,,,
8481_10,,赤坂一丁目東,,38.291895,140.752954,8481_10,,0,,,,
8481_50,,赤坂一丁目東,,38.291405,140.753195,8481_50,,0,,,,
8483_10,,赤坂一丁目,,38.293194,140.749827,8483_10,,0,,,,
8483_50,,赤坂一丁目,,38.293149,140.749637,8483_50,,0,,,,
8485_10,,赤坂二丁目,,38.293485,140.745691,8485_10,,0,,,,
8485_50,,赤坂二丁目,,38.293403,140.745972,8485_50,,0,,,,
8487_0,,赤坂三丁目,,38.292337,140.743071,8487_0,,0,,,,
8487_10,,赤坂三丁目,,38.292149,140.742784,8487_10,,0,,,,
8487_50,,赤坂三丁目,,38.292336,140.743073,8487_50,,0,,,,
8491_10,,上辺田,,38.295925,140.767702,8491_10,,0,,,,
8493_10,,横前,,38.293526,140.761930,8493_10,,0,,,,
8493_50,,横前,,38.293584,140.761961,8493_50,,0,,,,
8495_10,,大沢中学校前,,38.290759,140.751316,8495_10,,0,,,,
8495_50,,大沢中学校前,,38.290822,140.751314,8495_50,,0,,,,
8497_10,,川前小学校前,,38.290246,140.748113,8497_10,,0,,,,
8497_50,,川前小学校前,,38.290263,140.748053,8497_50,,0,,,,
8498_10,,畑前,,38.298886,140.717189,8498_10,,0,,,,
8499_0,,畑前北,,38.303724,140.714025,8499_0,,0,,,,
8499_10,,畑前北,,38.303720,140.714156,8499_10,,0,,,,
8501_10,,広瀬中学校前,,38.273698,140.764394,8501_10,,0,,,,
8501_50,,広瀬中学校前,,38.273913,140.764271,8501_50,,0,,,,
8503_10,,開成橋,,38.279650,140.763010,8503_10,,0,,,,
8503_50,,開成橋,,38.279640,140.762816,8503_50,,0,,,,
8505_10,,花坂下,,38.281078,140.757438,8505_10,,0,,,,
8505_50,,花坂下,,38.280837,140.757872,8505_50,,0,,,,
8507_10,,中原浄水場前,,38.282812,140.756808,8507_10,,0,,,,
8507_50,,中原浄水場前,,38.282803,140.756714,8507_50,,0,,,,
8601_10,,折葉,,38.283372,140.683455,8601_10,,0,,,,
8602_10,,ＪＡ仙台秋保店入口,,38.263798,140.673224,8602_10,,0,,,,
8602_50,,ＪＡ仙台秋保店入口,,38.263766,140.673305,8602_50,,0,,,,
8603_10,,秋保中学校前,,38.260270,140.672520,8603_10,,0,,,,1
8603_50,,秋保中学校前,,38.259897,140.672573,8603_50,,0,,,,2
8603_51,,秋保中学校前,,38.259806,140.672719,8603_51,,0,,,,3
8605_10,,秋保郵便局前,,38.257628,140.676879,8605_10,,0,,,,
8605_50,,秋保郵便局前,,38.257139,140.677501,8605_50,,0,,,,
8607_10,,長袋,,38.255664,140.679582,8607_10,,0,,,,
8609_10,,境野,,38.248937,140.686977,8609_10,,0,,,,
8609_50,,境野,,38.248876,140.686853,8609_50,,0,,,,
8611_10,,鴻の巣温泉,,38.247352,140.690371,8611_10,,0,,,,
8613_10,,神ケ根温泉,,38.246558,140.692788,8613_10,,0,,,,
8615_10,,七森,,38.241931,140.702636,8615_10,,0,,,,
8617_10,,橋本,,38.237474,140.708272,8617_10,,0,,,,
8619_10,,太夫原,,38.233122,140.711328,8619_10,,0,,,,
8621_10,,湯向,,38.229844,140.718579,8621_10,,0,,,,
8621_50,,湯向,,38.229727,140.718378,8621_50,,0,,,,
8623_10,,湯元市民センター前,,38.228279,140.726234,8623_10,,0,,,,
8623_50,,湯元市民センター前,,38.228342,140.726256,8623_50,,0,,,,
8624_10,,湯元保育所前,,38.229792,140.722916,8624_10,,0,,,,
8624_50,,湯元保育所前,,38.229912,140.722840,8624_50,,0,,,,
8625_10,,磊々峡入口,,38.225141,140.728177,8625_10,,0,,,,
8625_50,,磊々峡入口,,38.225224,140.728263,8625_50,,0,,,,
8627_10,,秋保・里センター,,38.224958,140.726675,8627_10,,0,,,,
8631_10,,青木,,38.227479,140.726966,8631_10,,0,,,,
8631_50,,青木,,38.227339,140.727051,8631_50,,0,,,,
8641_10,,並木,,38.260290,140.671199,8641_10,,0,,,,
8643_10,,大東,,38.263334,140.664060,8643_10,,0,,,,
8645_10,,秋保神社前,,38.263489,140.661030,8645_10,,0,,,,
8647_10,,野中,,38.264640,140.657857,8647_10,,0,,,,
8649_10,,加沢,,38.267552,140.651904,8649_10,,0,,,,
8651_10,,馬場,,38.268267,140.648512,8651_10,,0,,,,
8653_10,,馬場小学校前,,38.269642,140.644327,8653_10,,0,,,,
8653_50,,馬場小学校前,,38.269688,140.644071,8653_50,,0,,,,
8655_10,,田尻,,38.271872,140.636186,8655_10,,0,,,,
8657_0,,上ノ原,,38.271041,140.631472,8657_0,,0,,,,
8657_10,,上ノ原,,38.271130,140.631472,8657_10,,0,,,,
8659_10,,深野,,38.269928,140.619249,8659_10,,0,,,,
8659_50,,深野,,38.269732,140.619473,8659_50,,0,,,,
8661_10,,滝の原,,38.272053,140.613713,8661_10,,0,,,,
8663_10,,丸山,,38.272432,140.608955,8663_10,,0,,,,
8665_10,,秋保大滝,,38.273439,140.604185,8665_10,,0,,,,
8667_10,,野尻,,38.269401,140.577185,8667_10,,0,,,,
8668_0,,野尻町北,,38.270165,140.572699,8668_0,,0,,,,
8668_10,,野尻町北,,38.270198,140.572709,8668_10,,0,,,,
8698_10,,高野原二丁目,,38.287829,140.768285,8698_10,,0,,,,
8698_50,,高野原二丁目,,38.287759,140.767971,8698_50,,0,,,,
8699_10,,高野原三丁目,,38.288512,140.762636,8699_10,,0,,,,
8699_50,,高野原三丁目,,38.288397,140.762665,8699_50,,0,,,,
8700_10,,高野原四丁目,,38.289577,140.757083,8700_10,,0,,,,
8700_50,,高野原四丁目,,38.289493,140.756977,8700_50,,0,,,,
8711_10,,熊ケ根,,38.293678,140.689643,8711_10,,0,,,,
8711_50,,熊ケ根,,38.293779,140.689568,8711_50,,0,,,,
8713_10,,大手門入口,,38.295643,140.691504,8713_10,,0,,,,
8713_50,,大手門入口,,38.295967,140.691677,8713_50,,0,,,,
8715_10,,大原,,38.297627,140.697285,8715_10,,0,,,,
8717_10,,小原,,38.302509,140.700872,8717_10,,0,,,,
8719_10,,小原上,,38.307934,140.702092,8719_10,,0,,,,
8721_10,,下倉,,38.315510,140.705498,8721_10,,0,,,,
8721_50,,下倉,,38.315169,140.705397,8721_50,,0,,,,
8723_10,,大倉ダム,,38.320937,140.704293,8723_10,,0,,,,
8725_10,,切払,,38.325584,140.706312,8725_10,,0,,,,
8727_10,,上山崎,,38.329658,140.703944,8727_10,,0,,,,
8729_10,,日向下,,38.332081,140.700865,8729_10,,0,,,,
8731_10,,湖畔公園前,,38.335023,140.698306,8731_10,,0,,,,
8733_10,,上原住宅前,,38.336191,140.693724,8733_10,,0,,,,
8735_10,,栗生上,,38.334426,140.689121,8735_10,,0,,,,
8737_10,,大倉ふるさとセンター前,,38.338292,140.685171,8737_10,,0,,,,
8741_10,,滝ノ上,,38.352376,140.680362,8741_10,,0,,,,
8743_10,,上原住宅入口,,38.336833,140.695138,8743_10,,0,,,,
8745_10,,日向上,,38.339187,140.693144,8745_10,,0,,,,
8747_10,,宇治沢,,38.341603,140.689590,8747_10,,0,,,,
8749_10,,矢籠,,38.352856,140.683055,8749_10,,0,,,,
8751_10,,斎野神,,38.362884,140.678292,8751_10,,0,,,,
8755_0,,定義,,38.362811,140.671543,8755_0,,0,,,,
8755_10,,定義,,38.362816,140.671545,8755_10,,0,,,,
8801_51,,栗生入口,,38.270367,140.790567,8801_51,,0,,,,
8803_51,,栗生,,38.266349,140.790684,8803_51,,0,,,,
8841_11,,宮城総合支所・愛子小学校前,,38.268834,140.761249,8841_11,,0,,,,
8841_51,,宮城総合支所・愛子小学校前,,38.269662,140.761552,8841_51,,0,,,,
8845_11,,諏訪神社前,,38.266499,140.761083,8845_11,,0,,,,
8845_51,,諏訪神社前,,38.266477,140.761337,8845_51,,0,,,,
8851_11,,錦ケ丘中学校前,,38.263106,140.762227,8851_11,,0,,,,
8851_51,,錦ケ丘中学校前,,38.263347,140.762346,8851_51,,0,,,,
8853_0,,錦ケ丘八丁目,,38.258197,140.759904,8853_0,,0,,,,
8854_11,,錦ケ丘七丁目北・天文台入口,,38.257241,140.758725,8854_11,,0,,,,
8854_51,,錦ケ丘七丁目北・天文台入口,,38.256638,140.758819,8854_51,,0,,,,
8855_11,,錦ケ丘七丁目,,38.253611,140.759193,8855_11,,0,,,,
8855_51,,錦ケ丘七丁目,,38.254469,140.759075,8855_51,,0,,,,
8857_11,,錦ケ丘五丁目,,38.251001,140.762357,8857_11,,0,,,,
8857_51,,錦ケ丘五丁目,,38.250893,140.761479,8857_51,,0,,,,
8859_11,,錦ケ丘六丁目,,38.253563,140.763997,8859_11,,0,,,,
8859_51,,錦ケ丘六丁目,,38.252881,140.764379,8859_51,,0,,,,
8863_11,,錦ケ丘一丁目,,38.257564,140.763231,8863_11,,0,,,,
8863_51,,錦ケ丘一丁目,,38.257261,140.763580,8863_51,,0,,,,
9_11,,高等裁判所前,,38.257678,140.867985,9_11,,0,,,,
9_51,,高等裁判所前,,38.257438,140.867829,9_51,,0,,,,
9005_10,,通町二丁目,,38.279171,140.865278,9005_10,,0,,,,
9005_50,,通町二丁目,,38.278991,140.865227,9005_50,,0,,,,
9006_10,,宮城県仙台合同庁舎前,,38.278508,140.867416,9006_10,,0,,,,
9006_50,,宮城県仙台合同庁舎前,,38.277932,140.867388,9006_50,,0,,,,
9009_10,,北山一丁目,,38.279920,140.859757,9009_10,,0,,,,
9009_50,,北山一丁目,,38.279664,140.859565,9009_50,,0,,,,
9011_10,,輪王寺前,,38.281146,140.858216,9011_10,,0,,,,
9011_50,,輪王寺前,,38.281061,140.857981,9011_50,,0,,,,
9013_10,,羽黒神社前,,38.282205,140.855223,9013_10,,0,,,,
9013_50,,羽黒神社前,,38.282656,140.854588,9013_50,,0,,,,
9015_10,,北山三丁目,,38.281243,140.852552,9015_10,,0,,,,
9015_50,,北山三丁目,,38.282183,140.852930,9015_50,,0,,,,
9017_10,,三条町,,38.280235,140.851085,9017_10,,0,,,,
9017_50,,三条町,,38.280648,140.851949,9017_50,,0,,,,
9019_10,,東北福祉大前,,38.279509,140.849156,9019_10,,0,,,,
9019_50,,東北福祉大前,,38.279524,140.849200,9019_50,,0,,,,
9021_10,,国見一丁目,,38.278449,140.848411,9021_10,,0,,,,
9021_50,,国見一丁目,,38.278159,140.847954,9021_50,,0,,,,
9023_0,,子平町・壽徳寺前,,38.275664,140.846324,9023_0,,0,,,,
9023_10,,子平町・壽徳寺前,,38.275832,140.847362,9023_10,,0,,,,
9023_11,,子平町・壽徳寺前,,38.275661,140.846334,9023_11,,0,,,,
9023_50,,子平町・壽徳寺前,,38.276628,140.847072,9023_50,,0,,,,
9023_51,,子平町・壽徳寺前,,38.276611,140.847134,9023_51,,0,,,,
9025_10,,子平町龍雲院前,,38.274488,140.851066,9025_10,,0,,,,
9027_10,,柏木二丁目,,38.273644,140.852843,9027_10,,0,,,,
9027_50,,柏木二丁目,,38.273723,140.852914,9027_50,,0,,,,
9029_10,,教会前,,38.274186,140.856066,9029_10,,0,,,,
9031_10,,星陵町,,38.274631,140.858848,9031_10,,0,,,,
9031_50,,星陵町,,38.274599,140.858984,9031_50,,0,,,,
9033_10,,歯学部・東北会病院前,,38.274679,140.861731,9033_10,,0,,,,
9033_50,,歯学部・東北会病院前,,38.274675,140.861540,9033_50,,0,,,,
9035_10,,加齢医学研究所入口,,38.273431,140.862173,9035_10,,0,,,,
9041_10,,木町,,38.277522,140.860915,9041_10,,0,,,,
9041_50,,木町,,38.277307,140.860675,9041_50,,0,,,,
9050_10,,木町東,,38.278592,140.861291,9050_10,,0,,,,
9050_50,,木町東,,38.278454,140.861446,9050_50,,0,,,,
91_10,,二日町北四番丁,,38.271557,140.869329,91_10,,0,,,,4
91_50,,二日町北四番丁,,38.271459,140.869032,91_50,,0,,,,3
91_51,,二日町北四番丁,,38.271555,140.869014,91_51,,0,,,,2
91_52,,二日町北四番丁,,38.271894,140.867849,91_52,,0,,,,1
9101_10,,北山霊園前,,38.283932,140.857064,9101_10,,0,,,,
9101_50,,北山霊園前,,38.284148,140.856905,9101_50,,0,,,,
9103_10,,山手町,,38.286578,140.856000,9103_10,,0,,,,
9103_50,,山手町,,38.286649,140.855858,9103_50,,0,,,,
9105_10,,本沢二丁目,,38.289207,140.855145,9105_10,,0,,,,
9105_50,,本沢二丁目,,38.289177,140.854830,9105_50,,0,,,,
9111_10,,中山入口,,38.288355,140.849444,9111_10,,0,,,,
9111_50,,中山入口,,38.288276,140.849406,9111_50,,0,,,,
9115_10,,中山二丁目,,38.289823,140.845652,9115_10,,0,,,,
9115_50,,中山二丁目,,38.289839,140.845486,9115_50,,0,,,,
9117_10,,中山四丁目,,38.290793,140.844292,9117_10,,0,,,,
9117_50,,中山四丁目,,38.291009,140.843856,9117_50,,0,,,,
9119_10,,中山不動尊前,,38.292671,140.841719,9119_10,,0,,,,
9119_50,,中山不動尊前,,38.292846,140.841207,9119_50,,0,,,,
9121_10,,中山六丁目,,38.294672,140.836961,9121_10,,0,,,,
9121_50,,中山六丁目,,38.294154,140.838051,9121_50,,0,,,,
9131_10,,中山市民センター前,,38.291953,140.837486,9131_10,,0,,,,
9131_50,,中山市民センター前,,38.291719,140.837654,9131_50,,0,,,,
9133_10,,電力研究所前,,38.293877,140.835641,9133_10,,0,,,,
9133_50,,電力研究所前,,38.293815,140.835669,9133_50,,0,,,,
9151_10,,中山七丁目,,38.297826,140.836936,9151_10,,0,,,,
9151_50,,中山七丁目,,38.297747,140.836977,9151_50,,0,,,,
9152_10,,西勝山公園前,,38.297726,140.837911,9152_10,,0,,,,
9152_50,,西勝山公園前,,38.297789,140.837867,9152_50,,0,,,,
9155_10,,中山八丁目,,38.298253,140.834952,9155_10,,0,,,,
9155_50,,中山八丁目,,38.298392,140.833945,9155_50,,0,,,,
9157_10,,中山九丁目,,38.299436,140.830259,9157_10,,0,,,,
9157_50,,中山九丁目,,38.299326,140.830365,9157_50,,0,,,,
9159_10,,南中山・仙台大観音前,,38.300687,140.826198,9159_10,,0,,,,
9159_50,,南中山・仙台大観音前,,38.300576,140.826007,9159_50,,0,,,,
9161_10,,仙台大観音前,,38.299257,140.824463,9161_10,,0,,,,
9161_50,,仙台大観音前,,38.299692,140.825315,9161_50,,0,,,,
9163_10,,中山吉成一丁目,,38.299404,140.822410,9163_10,,0,,,,
9163_50,,中山吉成一丁目,,38.299269,140.822400,9163_50,,0,,,,
9165_10,,中山吉成,,38.301531,140.818862,9165_10,,0,,,,
9165_50,,中山吉成,,38.301343,140.818870,9165_50,,0,,,,
9167_10,,中山台入口,,38.303535,140.815432,9167_10,,0,,,,
9167_50,,中山台入口,,38.303403,140.815356,9167_50,,0,,,,
9170_0,,聖和短大前,,38.306588,140.812188,9170_0,,0,,,,
9170_10,,聖和短大前,,38.307890,140.812775,9170_10,,0,,,,
9170_11,,聖和短大前,,38.307153,140.812393,9170_11,,0,,,,
9170_50,,聖和短大前,,38.307608,140.812694,9170_50,,0,,,,
9172_10,,西中山中央,,38.308499,140.807702,9172_10,,0,,,,
9172_50,,西中山中央,,38.308427,140.807741,9172_50,,0,,,,
9173_0,,西中山,,38.305882,140.806887,9173_0,,0,,,,
9173_10,,西中山,,38.305797,140.806801,9173_10,,0,,,,
9174_10,,北中山二丁目東,,38.317080,140.817052,9174_10,,0,,,,
9174_50,,北中山二丁目東,,38.317057,140.817647,9174_50,,0,,,,
9181_10,,札原,,38.308025,140.802688,9181_10,,0,,,,
9181_50,,札原,,38.307961,140.802552,9181_50,,0,,,,
9182_10,,泉ビレジ一丁目南,,38.309043,140.795095,9182_10,,0,,,,
9182_50,,泉ビレジ一丁目南,,38.308966,140.795213,9182_50,,0,,,,
9183_10,,泉ビレジ一丁目西,,38.312148,140.794023,9183_10,,0,,,,
9183_50,,泉ビレジ一丁目西,,38.312156,140.793930,9183_50,,0,,,,
9185_10,,泉ビレジ一丁目,,38.309569,140.797820,9185_10,,0,,,,
9185_50,,泉ビレジ一丁目,,38.309475,140.797737,9185_50,,0,,,,
9189_10,,泉ビレジ二丁目,,38.312326,140.797799,9189_10,,0,,,,
9189_50,,泉ビレジ二丁目,,38.313133,140.797627,9189_50,,0,,,,
9191_10,,泉ビレジ三丁目,,38.315939,140.797831,9191_10,,0,,,,
9191_50,,泉ビレジ三丁目,,38.317018,140.797853,9191_50,,0,,,,
9193_10,,泉ビレジ五丁目,,38.319844,140.800430,9193_10,,0,,,,
9193_50,,泉ビレジ五丁目,,38.318902,140.799420,9193_50,,0,,,,
9195_0,,泉ビレジ四丁目,,38.321999,140.800934,9195_0,,0,,,,
9195_10,,泉ビレジ四丁目,,38.322053,140.801046,9195_10,,0,,,,
9195_50,,泉ビレジ四丁目,,38.321941,140.800860,9195_50,,0,,,,
9201_10,,西勝山西,,38.300641,140.837470,9201_10,,0,,,,
9203_10,,西勝山,,38.302586,140.840665,9203_10,,0,,,,
9205_10,,西勝山中央,,38.299488,140.841351,9205_10,,0,,,,
9207_0,,西勝山入口,,38.299298,140.837420,9207_0,,0,,,,
9207_10,,西勝山入口,,38.299294,140.837413,9207_10,,0,,,,
9209_10,,川平北公園前,,38.300798,140.835193,9209_10,,0,,,,
9209_50,,川平北公園前,,38.300662,140.835399,9209_50,,0,,,,
9211_10,,川平四丁目,,38.303381,140.836154,9211_10,,0,,,,
9211_50,,川平四丁目,,38.303467,140.836069,9211_50,,0,,,,
9221_10,,南中山入口,,38.303571,140.826925,9221_10,,0,,,,
9221_50,,南中山入口,,38.303811,140.826831,9221_50,,0,,,,
9223_10,,南中山中学校前,,38.308800,140.825964,9223_10,,0,,,,
9223_50,,南中山中学校前,,38.308711,140.825929,9223_50,,0,,,,
9225_10,,南中山小学校入口,,38.310512,140.824182,9225_10,,0,,,,
9225_50,,南中山小学校入口,,38.310491,140.823977,9225_50,,0,,,,
9227_10,,南中山児童センター前,,38.312349,140.821075,9227_10,,0,,,,
9227_50,,南中山児童センター前,,38.312692,140.820944,9227_50,,0,,,,
9229_10,,北中山一丁目,,38.315919,140.820210,9229_10,,0,,,,
9229_50,,北中山一丁目,,38.315908,140.820082,9229_50,,0,,,,
9231_10,,北中山二丁目,,38.316759,140.814512,9231_10,,0,,,,
9231_11,,北中山二丁目,,38.316075,140.813881,9231_11,,0,,,,
9231_50,,北中山二丁目,,38.316602,140.814323,9231_50,,0,,,,
9231_51,,北中山二丁目,,38.316932,140.813577,9231_51,,0,,,,
9232_10,,北中山三丁目,,38.315502,140.811160,9232_10,,0,,,,
9232_50,,北中山三丁目,,38.315056,140.810972,9232_50,,0,,,,
9233_10,,北中山四丁目,,38.312076,140.808854,9233_10,,0,,,,
9233_50,,北中山四丁目,,38.311134,140.808668,9233_50,,0,,,,
9234_10,,川平五丁目北,,38.308156,140.831275,9234_10,,0,,,,
9234_50,,川平五丁目北,,38.308027,140.831191,9234_50,,0,,,,
9235_10,,長命ケ丘三丁目西,,38.310337,140.830010,9235_10,,0,,,,
9235_50,,長命ケ丘三丁目西,,38.310009,140.829994,9235_50,,0,,,,
9237_10,,南中山三丁目,,38.310393,140.827733,9237_10,,0,,,,
9237_50,,南中山三丁目,,38.310372,140.827912,9237_50,,0,,,,
9239_10,,長命ケ丘六丁目南,,38.311326,140.831224,9239_10,,0,,,,
9239_50,,長命ケ丘六丁目南,,38.311261,140.831317,9239_50,,0,,,,
9241_11,,南中山一丁目,,38.299838,140.828289,9241_11,,0,,,,
9241_51,,南中山一丁目,,38.299762,140.828213,9241_51,,0,,,,
9242_10,,北環状線・南中山一丁目,,38.300561,140.829742,9242_10,,0,,,,
9242_50,,北環状線・南中山一丁目,,38.300460,140.829896,9242_50,,0,,,,
9243_10,,光明支援学校前,,38.312016,140.814656,9243_10,,0,,,,
9243_50,,光明支援学校前,,38.312099,140.814696,9243_50,,0,,,,
9250_10,,南中山五丁目,,38.311270,140.813061,9250_10,,0,,,,
9250_50,,南中山五丁目,,38.310876,140.812650,9250_50,,0,,,,
9251_10,,水泉荘前,,38.316246,140.806106,9251_10,,0,,,,
9251_50,,水泉荘前,,38.316012,140.805790,9251_50,,0,,,,
9252_10,,道祖神,,38.320003,140.810048,9252_10,,0,,,,
9252_50,,道祖神,,38.319774,140.809807,9252_50,,0,,,,
9253_10,,二ノ関屋敷,,38.322423,140.812261,9253_10,,0,,,,
9256_10,,熊野神社前,,38.324402,140.822008,9256_10,,0,,,,
9258_10,,中山大橋,,38.316951,140.825172,9258_10,,0,,,,
9258_50,,中山大橋,,38.317017,140.825315,9258_50,,0,,,,
9260_0,,市営バス実沢営業所前,,38.323518,140.818438,9260_0,,0,,,,
9260_10,,市営バス実沢営業所前,,38.323512,140.818294,9260_10,,0,,,,
9301_0,,地下鉄北仙台駅,,38.282534,140.868235,9301_0,,0,,,,
9301_50,,地下鉄北仙台駅,,38.282540,140.868213,9301_50,,0,,,,
9301_51,,地下鉄北仙台駅,,38.282593,140.868095,9301_51,,0,,,,
9301_52,,地下鉄北仙台駅,,38.282713,140.868215,9301_52,,0,,,,
9311_10,,北仙台駅,,38.281486,140.869188,9311_10,,0,,,,
9311_50,,北仙台駅,,38.281237,140.869076,9311_50,,0,,,,
9313_10,,葉山町,,38.283246,140.866601,9313_10,,0,,,,
9313_50,,葉山町,,38.283041,140.866951,9313_50,,0,,,,
9315_10,,長生園前,,38.284942,140.864893,9315_10,,0,,,,
9315_50,,長生園前,,38.285189,140.864618,9315_50,,0,,,,
9317_10,,こまくさ苑前,,38.287574,140.861063,9317_10,,0,,,,
9317_50,,こまくさ苑前,,38.287198,140.862162,9317_50,,0,,,,
9319_10,,荒巻小学校前,,38.288318,140.858483,9319_10,,0,,,,
9319_50,,荒巻小学校前,,38.288118,140.858521,9319_50,,0,,,,
9321_10,,本沢三丁目,,38.290818,140.857056,9321_10,,0,,,,
9321_50,,本沢三丁目,,38.290756,140.856942,9321_50,,0,,,,
9322_10,,本沢三丁目西,,38.289962,140.855956,9322_10,,0,,,,
9323_10,,共済団地入口,,38.292289,140.856233,9323_10,,0,,,,
9323_50,,共済団地入口,,38.292581,140.856077,9323_50,,0,,,,
9340_10,,水の森三丁目西,,38.294561,140.855050,9340_10,,0,,,,
9341_10,,滝道入口,,38.293711,140.855287,9341_10,,0,,,,
9341_50,,滝道入口,,38.293972,140.854059,9341_50,,0,,,,
9343_10,,桜ケ丘団地入口,,38.295501,140.852011,9343_10,,0,,,,
9343_50,,桜ケ丘団地入口,,38.295341,140.852026,9343_50,,0,,,,
9345_10,,桜ケ丘四丁目,,38.298908,140.850331,9345_10,,0,,,,
9345_50,,桜ケ丘四丁目,,38.299282,140.850143,9345_50,,0,,,,
9347_10,,桜ケ丘ロータリー,,38.300617,140.850276,9347_10,,0,,,,
9347_50,,桜ケ丘ロータリー,,38.300732,140.850264,9347_50,,0,,,,
9349_10,,桜ケ丘五丁目,,38.301472,140.848745,9349_10,,0,,,,
9349_50,,桜ケ丘五丁目,,38.301408,140.848460,9349_50,,0,,,,
9351_10,,桜ケ丘六丁目,,38.302345,140.848178,9351_10,,0,,,,
9351_50,,桜ケ丘六丁目,,38.302390,140.848069,9351_50,,0,,,,
9353_0,,桜ケ丘七丁目,,38.304891,140.846185,9353_0,,0,,,,
9353_10,,桜ケ丘七丁目,,38.304890,140.846254,9353_10,,0,,,,
9355_10,,桜丘小学校前,,38.304364,140.848709,9355_10,,0,,,,
9355_50,,桜丘小学校前,,38.304381,140.848602,9355_50,,0,,,,
9371_0,,宮城学院前,,38.304962,140.851015,9371_0,,0,,,,
9371_12,,宮城学院前,,38.304933,140.851722,9371_12,,0,,,,
9401_10,,桜ケ丘県営住宅前,,38.295732,140.848244,9401_10,,0,,,,
9401_50,,桜ケ丘県営住宅前,,38.295868,140.846327,9401_50,,0,,,,
9413_10,,桜ケ丘一丁目,,38.297270,140.845199,9413_10,,0,,,,
9413_50,,桜ケ丘一丁目,,38.298569,140.844999,9413_50,,0,,,,
9415_0,,仙台大明成高校前,,38.301179,140.844405,9415_0,,0,,,,
9415_10,,仙台大明成高校前,,38.301800,140.844439,9415_10,,0,,,,
9415_50,,仙台大明成高校前,,38.301669,140.844268,9415_50,,0,,,,
9415_51,,仙台大明成高校前,,38.301543,140.844694,9415_51,,0,,,,
9417_10,,川平団地入口,,38.304464,140.839010,9417_10,,0,,,,
9417_50,,川平団地入口,,38.304299,140.839347,9417_50,,0,,,,
9419_10,,川平小学校前,,38.304622,140.836783,9419_10,,0,,,,
9419_50,,川平小学校前,,38.304482,140.836813,9419_50,,0,,,,
9421_10,,川平団地,,38.306037,140.833771,9421_10,,0,,,,
9421_11,,川平団地,,38.306055,140.832802,9421_11,,0,,,,
9421_12,,川平団地,,38.306762,140.833720,9421_12,,0,,,,
9421_50,,川平団地,,38.305750,140.833865,9421_50,,0,,,,
9421_52,,川平団地,,38.306875,140.832532,9421_52,,0,,,,
9423_10,,川平市営住宅前,,38.307101,140.835901,9423_10,,0,,,,
9423_50,,川平市営住宅前,,38.307274,140.835965,9423_50,,0,,,,
9425_10,,川平市営住宅東,,38.307613,140.839778,9425_10,,0,,,,
9425_50,,川平市営住宅東,,38.308005,140.840572,9425_50,,0,,,,
9426_10,,泉館山高校入口,,38.309386,140.843095,9426_10,,0,,,,
9426_50,,泉館山高校入口,,38.309436,140.842916,9426_50,,0,,,,
9427_10,,泉館山高校前,,38.310235,140.842789,9427_10,,0,,,,
9427_50,,泉館山高校前,,38.310185,140.842964,9427_50,,0,,,,
9429_10,,長命ケ丘市民センター前,,38.311099,140.839883,9429_10,,0,,,,
9429_50,,長命ケ丘市民センター前,,38.311142,140.839544,9429_50,,0,,,,
9433_10,,下原,,38.286554,140.780066,9433_10,,0,,,,
9433_50,,下原,,38.286430,140.780130,9433_50,,0,,,,
9435_10,,小坂南,,38.287037,140.775157,9435_10,,0,,,,
9435_50,,小坂南,,38.286941,140.775049,9435_50,,0,,,,
9437_10,,みやぎ台入口,,38.304274,140.775740,9437_10,,0,,,,
9437_11,,みやぎ台入口,,38.305349,140.775628,9437_11,,0,,,,
9437_50,,みやぎ台入口,,38.304534,140.775793,9437_50,,0,,,,
9437_51,,みやぎ台入口,,38.305418,140.775728,9437_51,,0,,,,
9439_10,,平沢,,38.321814,140.787468,9439_10,,0,,,,
9439_50,,平沢,,38.321794,140.787612,9439_50,,0,,,,
9441_10,,塩野沢,,38.314103,140.781122,9441_10,,0,,,,
9441_50,,塩野沢,,38.314291,140.781178,9441_50,,0,,,,
9450_10,,川平小学校入口,,38.304740,140.844475,9450_10,,0,,,,
9450_50,,川平小学校入口,,38.304882,140.844391,9450_50,,0,,,,
95_10,,北仙台,,38.279449,140.868878,95_10,,0,,,,
95_50,,北仙台,,38.279592,140.868814,95_50,,0,,,,
9501_10,,東北医科薬科大学病院入口,,38.269577,140.969280,9501_10,,0,,,,
9501_50,,東北医科薬科大学病院入口,,38.269860,140.969146,9501_50,,0,,,,
9502_10,,高砂市民センター前,,38.269481,140.974075,9502_10,,0,,,,
9502_50,,高砂市民センター前,,38.269511,140.973834,9502_50,,0,,,,
9503_10,,高砂二丁目,,38.268656,140.971306,9503_10,,0,,,,
9503_50,,高砂二丁目,,38.268705,140.971608,9503_50,,0,,,,
9504_10,,白鳥一丁目・軽自動車検査協会前,,38.266222,140.977344,9504_10,,0,,,,
9504_50,,白鳥一丁目・軽自動車検査協会前,,38.266298,140.977696,9504_50,,0,,,,
9505_10,,白鳥二丁目,,38.265309,140.980232,9505_10,,0,,,,
9505_50,,白鳥二丁目,,38.265225,140.981069,9505_50,,0,,,,
9506_10,,福室三丁目,,38.278001,140.970691,9506_10,,0,,,,
9506_50,,福室三丁目,,38.277885,140.970478,9506_50,,0,,,,
9507_10,,福室六丁目,,38.280348,140.969356,9507_10,,0,,,,
9507_50,,福室六丁目,,38.280423,140.969170,9507_50,,0,,,,
9508_10,,高砂市営住宅東,,38.281111,140.974628,9508_10,,0,,,,
9508_50,,高砂市営住宅東,,38.281084,140.974669,9508_50,,0,,,,
9509_10,,中野新町,,38.262193,140.989740,9509_10,,0,,,,
9509_50,,中野新町,,38.262260,140.989190,9509_50,,0,,,,
9512_10,,蒲生一丁目,,38.260639,140.994828,9512_10,,0,,,,
9512_50,,蒲生一丁目,,38.260707,140.994976,9512_50,,0,,,,
9515_10,,蒲生三丁目,,38.259025,140.999458,9515_10,,0,,,,
9515_50,,蒲生三丁目,,38.259160,140.999629,9515_50,,0,,,,
9518_0,,蒲生・なかの伝承の丘,,38.257863,141.003513,9518_0,,0,,,,
9518_10,,蒲生・なかの伝承の丘,,38.257795,141.004608,9518_10,,0,,,,
